[{"objectID": "Afghanistan", "location": "Afghanistan", "country": "Afghanistan", "confirmed_cases": 198543, "_geoloc": {"lat": 33.9391, "lng": 67.71}}, {"objectID": "Albania", "location": "Albania", "country": "Albania", "confirmed_cases": 331987, "_geoloc": {"lat": 41.1533, "lng": 20.1683}}, {"objectID": "Algeria", "location": "Algeria", "country": "Algeria", "confirmed_cases": 270649, "_geoloc": {"lat": 28.0339, "lng": 1.6596}}, {"objectID": "Andorra", "location": "Andorra", "country": "Andorra", "confirmed_cases": 46147, "_geoloc": {"lat": 42.5063, "lng": 1.5218}}, {"objectID": "Angola", "location": "Angola", "country": "Angola", "confirmed_cases": 103131, "_geoloc": {"lat": -11.2027, "lng": 17.8739}}, {"objectID": "Antarctica", "location": "Antarctica", "country": "Antarctica", "confirmed_cases": 11, "_geoloc": {"lat": -71.9499, "lng": 23.347}}, {"objectID": "Antigua and Barbuda", "location": "Antigua and Barbuda", "country": "Antigua and Barbuda", "confirmed_cases": 9089, "_geoloc": {"lat": 17.0608, "lng": -61.7964}}, {"objectID": "Argentina", "location": "Argentina", "country": "Argentina", "confirmed_cases": 9708420, "_geoloc": {"lat": -38.4161, "lng": -63.6167}}, {"objectID": "Armenia", "location": "Armenia", "country": "Armenia", "confirmed_cases": 442875, "_geoloc": {"lat": 40.0691, "lng": 45.0382}}, {"objectID": "Australian Capital Territory, Australia", "location": "Australian Capital Territory, Australia", "country": "Australia", "confirmed_cases": 205128, "_geoloc": {"lat": -35.4735, "lng": 149.0124}}, {"objectID": "New South Wales, Australia", "location": "New South Wales, Australia", "country": "Australia", "confirmed_cases": 3495306, "_geoloc": {"lat": -33.8688, "lng": 151.2093}}, {"objectID": "Northern Territory, Australia", "location": "Northern Territory, Australia", "country": "Australia", "confirmed_cases": 97080, "_geoloc": {"lat": -12.4634, "lng": 130.8456}}, {"objectID": "Queensland, Australia", "location": "Queensland, Australia", "country": "Australia", "confirmed_cases": 1634219, "_geoloc": {"lat": -27.4698, "lng": 153.0251}}, {"objectID": "South Australia, Australia", "location": "South Australia, Australia", "country": "Australia", "confirmed_cases": 765857, "_geoloc": {"lat": -34.9285, "lng": 138.6007}}, {"objectID": "Tasmania, Australia", "location": "Tasmania, Australia", "country": "Australia", "confirmed_cases": 248905, "_geoloc": {"lat": -42.8821, "lng": 147.3272}}, {"objectID": "Victoria, Australia", "location": "Victoria, Australia", "country": "Australia", "confirmed_cases": 2609329, "_geoloc": {"lat": -37.8136, "lng": 144.9631}}, {"objectID": "Western Australia, Australia", "location": "Western Australia, Australia", "country": "Australia", "confirmed_cases": 1150133, "_geoloc": {"lat": -31.9505, "lng": 115.8605}}, {"objectID": "Austria", "location": "Austria", "country": "Austria", "confirmed_cases": 5079700, "_geoloc": {"lat": 47.5162, "lng": 14.5501}}, {"objectID": "Azerbaijan", "location": "Azerbaijan", "country": "Azerbaijan", "confirmed_cases": 820858, "_geoloc": {"lat": 40.1431, "lng": 47.5769}}, {"objectID": "Bahamas", "location": "Bahamas", "country": "Bahamas", "confirmed_cases": 37267, "_geoloc": {"lat": 25.0259, "lng": -78.0359}}, {"objectID": "Bahrain", "location": "Bahrain", "country": "Bahrain", "confirmed_cases": 679151, "_geoloc": {"lat": 26.0275, "lng": 50.55}}, {"objectID": "Bangladesh", "location": "Bangladesh", "country": "Bangladesh", "confirmed_cases": 2022408, "_geoloc": {"lat": 23.685, "lng": 90.3563}}, {"objectID": "Barbados", "location": "Barbados", "country": "Barbados", "confirmed_cases": 102456, "_geoloc": {"lat": 13.1939, "lng": -59.5432}}, {"objectID": "Belarus", "location": "Belarus", "country": "Belarus", "confirmed_cases": 994037, "_geoloc": {"lat": 53.7098, "lng": 27.9534}}, {"objectID": "Belgium", "location": "Belgium", "country": "Belgium", "confirmed_cases": 4533249, "_geoloc": {"lat": 50.8333, "lng": 4.4699}}, {"objectID": "Belize", "location": "Belize", "country": "Belize", "confirmed_cases": 68784, "_geoloc": {"lat": 17.1899, "lng": -88.4976}}, {"objectID": "Benin", "location": "Benin", "country": "Benin", "confirmed_cases": 27638, "_geoloc": {"lat": 9.3077, "lng": 2.3158}}, {"objectID": "Bhutan", "location": "Bhutan", "country": "Bhutan", "confirmed_cases": 61730, "_geoloc": {"lat": 27.5142, "lng": 90.4336}}, {"objectID": "Bolivia", "location": "Bolivia", "country": "Bolivia", "confirmed_cases": 1107963, "_geoloc": {"lat": -16.2902, "lng": -63.5887}}, {"objectID": "Bosnia and Herzegovina", "location": "Bosnia and Herzegovina", "country": "Bosnia and Herzegovina", "confirmed_cases": 398415, "_geoloc": {"lat": 43.9159, "lng": 17.6791}}, {"objectID": "Botswana", "location": "Botswana", "country": "Botswana", "confirmed_cases": 326308, "_geoloc": {"lat": -22.3285, "lng": 24.6849}}, {"objectID": "Brazil", "location": "Brazil", "country": "Brazil", "confirmed_cases": 34638288, "_geoloc": {"lat": -14.235, "lng": -51.9253}}, {"objectID": "Brunei", "location": "Brunei", "country": "Brunei", "confirmed_cases": 226237, "_geoloc": {"lat": 4.5353, "lng": 114.7277}}, {"objectID": "Bulgaria", "location": "Bulgaria", "country": "Bulgaria", "confirmed_cases": 1256266, "_geoloc": {"lat": 42.7339, "lng": 25.4858}}, {"objectID": "Burkina Faso", "location": "Burkina Faso", "country": "Burkina Faso", "confirmed_cases": 21128, "_geoloc": {"lat": 12.2383, "lng": -1.5616}}, {"objectID": "Burma", "location": "Burma", "country": "Burma", "confirmed_cases": 621686, "_geoloc": {"lat": 21.9162, "lng": 95.956}}, {"objectID": "Burundi", "location": "Burundi", "country": "Burundi", "confirmed_cases": 50129, "_geoloc": {"lat": -3.3731, "lng": 29.9189}}, {"objectID": "Cabo Verde", "location": "Cabo Verde", "country": "Cabo Verde", "confirmed_cases": 62360, "_geoloc": {"lat": 16.5388, "lng": -23.0418}}, {"objectID": "Cambodia", "location": "Cambodia", "country": "Cambodia", "confirmed_cases": 137849, "_geoloc": {"lat": 11.55, "lng": 104.9167}}, {"objectID": "Cameroon", "location": "Cameroon", "country": "Cameroon", "confirmed_cases": 121652, "_geoloc": {"lat": 3.848, "lng": 11.5021}}, {"objectID": "Alberta, Canada", "location": "Alberta, Canada", "country": "Canada", "confirmed_cases": 605757, "_geoloc": {"lat": 53.9333, "lng": -116.5765}}, {"objectID": "British Columbia, Canada", "location": "British Columbia, Canada", "country": "Canada", "confirmed_cases": 384266, "_geoloc": {"lat": 53.7267, "lng": -127.6476}}, {"objectID": "Manitoba, Canada", "location": "Manitoba, Canada", "country": "Canada", "confirmed_cases": 149622, "_geoloc": {"lat": 53.7609, "lng": -98.8139}}, {"objectID": "New Brunswick, Canada", "location": "New Brunswick, Canada", "country": "Canada", "confirmed_cases": 76902, "_geoloc": {"lat": 46.5653, "lng": -66.4619}}, {"objectID": "Newfoundland and Labrador, Canada", "location": "Newfoundland and Labrador, Canada", "country": "Canada", "confirmed_cases": 51580, "_geoloc": {"lat": 53.1355, "lng": -57.6604}}, {"objectID": "Northwest Territories,Canada", "location": "Northwest Territories,Canada", "country": "Canada", "confirmed_cases": 11511, "_geoloc": {"lat": 64.8255, "lng": -124.8457}}, {"objectID": "Nova Scotia, Canada", "location": "Nova Scotia, Canada", "country": "Canada", "confirmed_cases": 124511, "_geoloc": {"lat": 44.682, "lng": -63.7443}}, {"objectID": "Nunavut, Canada", "location": "Nunavut, Canada", "country": "Canada", "confirmed_cases": 3531, "_geoloc": {"lat": 70.2998, "lng": -83.1076}}, {"objectID": "Ontario, Canada", "location": "Ontario, Canada", "country": "Canada", "confirmed_cases": 1459908, "_geoloc": {"lat": 51.2538, "lng": -85.3232}}, {"objectID": "Prince Edward Island, Canada", "location": "Prince Edward Island, Canada", "country": "Canada", "confirmed_cases": 51410, "_geoloc": {"lat": 46.5107, "lng": -63.4168}}, {"objectID": "Quebec, Canada", "location": "Quebec, Canada", "country": "Canada", "confirmed_cases": 1196758, "_geoloc": {"lat": 52.9399, "lng": -73.5491}}, {"objectID": "Saskatchewan, Canada", "location": "Saskatchewan, Canada", "country": "Canada", "confirmed_cases": 143747, "_geoloc": {"lat": 52.9399, "lng": -106.4509}}, {"objectID": "Yukon, Canada", "location": "Yukon, Canada", "country": "Canada", "confirmed_cases": 4896, "_geoloc": {"lat": 64.2823, "lng": -135}}, {"objectID": "Central African Republic", "location": "Central African Republic", "country": "Central African Republic", "confirmed_cases": 14913, "_geoloc": {"lat": 6.6111, "lng": 20.9394}}, {"objectID": "Chad", "location": "Chad", "country": "Chad", "confirmed_cases": 7581, "_geoloc": {"lat": 15.4542, "lng": 18.7322}}, {"objectID": "Chile", "location": "Chile", "country": "Chile", "confirmed_cases": 4610353, "_geoloc": {"lat": -35.6751, "lng": -71.543}}, {"objectID": "Anhui, China", "location": "Anhui, China", "country": "China", "confirmed_cases": 1506, "_geoloc": {"lat": 31.8257, "lng": 117.2264}}, {"objectID": "Beijing, China", "location": "Beijing, China", "country": "China", "confirmed_cases": 4208, "_geoloc": {"lat": 40.1824, "lng": 116.4142}}, {"objectID": "Chongqing, China", "location": "Chongqing, China", "country": "China", "confirmed_cases": 1036, "_geoloc": {"lat": 30.0572, "lng": 107.874}}, {"objectID": "Fujian, China", "location": "Fujian, China", "country": "China", "confirmed_cases": 4322, "_geoloc": {"lat": 26.0789, "lng": 117.9874}}, {"objectID": "Gansu, China", "location": "Gansu, China", "country": "China", "confirmed_cases": 1350, "_geoloc": {"lat": 35.7518, "lng": 104.2861}}, {"objectID": "Guangdong, China", "location": "Guangdong, China", "country": "China", "confirmed_cases": 9933, "_geoloc": {"lat": 23.3417, "lng": 113.4244}}, {"objectID": "Guangxi, China", "location": "Guangxi, China", "country": "China", "confirmed_cases": 2329, "_geoloc": {"lat": 23.8298, "lng": 108.7881}}, {"objectID": "Guizhou, China", "location": "Guizhou, China", "country": "China", "confirmed_cases": 524, "_geoloc": {"lat": 26.8154, "lng": 106.8748}}, {"objectID": "Hainan, China", "location": "Hainan, China", "country": "China", "confirmed_cases": 8955, "_geoloc": {"lat": 19.1959, "lng": 109.7453}}, {"objectID": "Hebei, China", "location": "Hebei, China", "country": "China", "confirmed_cases": 2027, "_geoloc": {"lat": 37.8957, "lng": 114.9042}}, {"objectID": "Heilongjiang, China", "location": "Heilongjiang, China", "country": "China", "confirmed_cases": 3355, "_geoloc": {"lat": 47.862, "lng": 127.7615}}, {"objectID": "Henan, China", "location": "Henan, China", "country": "China", "confirmed_cases": 3326, "_geoloc": {"lat": 33.882, "lng": 113.614}}, {"objectID": "Hong Kong, China", "location": "Hong Kong, China", "country": "China", "confirmed_cases": 1749534, "_geoloc": {"lat": 22.3, "lng": 114.2}}, {"objectID": "Hubei, China", "location": "Hubei, China", "country": "China", "confirmed_cases": 68429, "_geoloc": {"lat": 30.9756, "lng": 112.2707}}, {"objectID": "Hunan, China", "location": "Hunan, China", "country": "China", "confirmed_cases": 1456, "_geoloc": {"lat": 27.6104, "lng": 111.7088}}, {"objectID": "Inner Mongolia, China", "location": "Inner Mongolia, China", "country": "China", "confirmed_cases": 2768, "_geoloc": {"lat": 44.0935, "lng": 113.9448}}, {"objectID": "Jiangsu, China", "location": "Jiangsu, China", "country": "China", "confirmed_cases": 2386, "_geoloc": {"lat": 32.9711, "lng": 119.455}}, {"objectID": "Jiangxi, China", "location": "Jiangxi, China", "country": "China", "confirmed_cases": 1495, "_geoloc": {"lat": 27.614, "lng": 115.7221}}, {"objectID": "Jilin, China", "location": "Jilin, China", "country": "China", "confirmed_cases": 40329, "_geoloc": {"lat": 43.6661, "lng": 126.1923}}, {"objectID": "Liaoning, China", "location": "Liaoning, China", "country": "China", "confirmed_cases": 1890, "_geoloc": {"lat": 41.2956, "lng": 122.6085}}, {"objectID": "Macau, China", "location": "Macau, China", "country": "China", "confirmed_cases": 793, "_geoloc": {"lat": 22.1667, "lng": 113.55}}, {"objectID": "Ningxia, China", "location": "Ningxia, China", "country": "China", "confirmed_cases": 133, "_geoloc": {"lat": 37.2692, "lng": 106.1655}}, {"objectID": "Qinghai, China", "location": "Qinghai, China", "country": "China", "confirmed_cases": 237, "_geoloc": {"lat": 35.7452, "lng": 95.9956}}, {"objectID": "Shaanxi, China", "location": "Shaanxi, China", "country": "China", "confirmed_cases": 3731, "_geoloc": {"lat": 35.1917, "lng": 108.8701}}, {"objectID": "Shandong, China", "location": "Shandong, China", "country": "China", "confirmed_cases": 3088, "_geoloc": {"lat": 36.3427, "lng": 118.1498}}, {"objectID": "Shanghai, China", "location": "Shanghai, China", "country": "China", "confirmed_cases": 64114, "_geoloc": {"lat": 31.202, "lng": 121.4491}}, {"objectID": "Shanxi, China", "location": "Shanxi, China", "country": "China", "confirmed_cases": 469, "_geoloc": {"lat": 37.5777, "lng": 112.2922}}, {"objectID": "Sichuan, China", "location": "Sichuan, China", "country": "China", "confirmed_cases": 5589, "_geoloc": {"lat": 30.6171, "lng": 102.7103}}, {"objectID": "Tianjin, China", "location": "Tianjin, China", "country": "China", "confirmed_cases": 2332, "_geoloc": {"lat": 39.3054, "lng": 117.323}}, {"objectID": "Tibet, China", "location": "Tibet, China", "country": "China", "confirmed_cases": 1356, "_geoloc": {"lat": 31.6927, "lng": 88.0924}}, {"objectID": "Xinjiang, China", "location": "Xinjiang, China", "country": "China", "confirmed_cases": 1170, "_geoloc": {"lat": 41.1129, "lng": 85.2401}}, {"objectID": "Yunnan, China", "location": "Yunnan, China", "country": "China", "confirmed_cases": 2389, "_geoloc": {"lat": 24.974, "lng": 101.487}}, {"objectID": "Zhejiang, China", "location": "Zhejiang, China", "country": "China", "confirmed_cases": 3413, "_geoloc": {"lat": 29.1832, "lng": 120.0934}}, {"objectID": "Colombia", "location": "Colombia", "country": "Colombia", "confirmed_cases": 6306552, "_geoloc": {"lat": 4.5709, "lng": -74.2973}}, {"objectID": "Comoros", "location": "Comoros", "country": "Comoros", "confirmed_cases": 8471, "_geoloc": {"lat": -11.6455, "lng": 43.3333}}, {"objectID": "Congo (Brazzaville)", "location": "Congo (Brazzaville)", "country": "Congo (Brazzaville)", "confirmed_cases": 24837, "_geoloc": {"lat": -0.228, "lng": 15.8277}}, {"objectID": "Congo (Kinshasa)", "location": "Congo (Kinshasa)", "country": "Congo (Kinshasa)", "confirmed_cases": 92852, "_geoloc": {"lat": -4.0383, "lng": 21.7587}}, {"objectID": "Costa Rica", "location": "Costa Rica", "country": "Costa Rica", "confirmed_cases": 1111969, "_geoloc": {"lat": 9.7489, "lng": -83.7534}}, {"objectID": "Cote d'Ivoire", "location": "Cote d'Ivoire", "country": "Cote d'Ivoire", "confirmed_cases": 87135, "_geoloc": {"lat": 7.54, "lng": -5.5471}}, {"objectID": "Croatia", "location": "Croatia", "country": "Croatia", "confirmed_cases": 1229044, "_geoloc": {"lat": 45.1, "lng": 15.2}}, {"objectID": "Cuba", "location": "Cuba", "country": "Cuba", "confirmed_cases": 1111161, "_geoloc": {"lat": 21.5218, "lng": -77.7812}}, {"objectID": "Cyprus", "location": "Cyprus", "country": "Cyprus", "confirmed_cases": 585313, "_geoloc": {"lat": 35.1264, "lng": 33.4299}}, {"objectID": "Czechia", "location": "Czechia", "country": "Czechia", "confirmed_cases": 4095484, "_geoloc": {"lat": 49.8175, "lng": 15.473}}, {"objectID": "Faroe Islands, Denmark", "location": "Faroe Islands, Denmark", "country": "Denmark", "confirmed_cases": 34658, "_geoloc": {"lat": 61.8926, "lng": -6.9118}}, {"objectID": "Greenland, Denmark", "location": "Greenland, Denmark", "country": "Denmark", "confirmed_cases": 11971, "_geoloc": {"lat": 71.7069, "lng": -42.6043}}, {"objectID": "Denmark", "location": "Denmark", "country": "Denmark", "confirmed_cases": 3293856, "_geoloc": {"lat": 56.2639, "lng": 9.5018}}, {"objectID": "Djibouti", "location": "Djibouti", "country": "Djibouti", "confirmed_cases": 15690, "_geoloc": {"lat": 11.8251, "lng": 42.5903}}, {"objectID": "Dominica", "location": "Dominica", "country": "Dominica", "confirmed_cases": 14852, "_geoloc": {"lat": 15.415, "lng": -61.371}}, {"objectID": "Dominican Republic", "location": "Dominican Republic", "country": "Dominican Republic", "confirmed_cases": 644356, "_geoloc": {"lat": 18.7357, "lng": -70.1627}}, {"objectID": "Ecuador", "location": "Ecuador", "country": "Ecuador", "confirmed_cases": 1002057, "_geoloc": {"lat": -1.8312, "lng": -78.1834}}, {"objectID": "Egypt", "location": "Egypt", "country": "Egypt", "confirmed_cases": 515645, "_geoloc": {"lat": 26.8206, "lng": 30.8025}}, {"objectID": "El Salvador", "location": "El Salvador", "country": "El Salvador", "confirmed_cases": 201785, "_geoloc": {"lat": 13.7942, "lng": -88.8965}}, {"objectID": "Equatorial Guinea", "location": "Equatorial Guinea", "country": "Equatorial Guinea", "confirmed_cases": 17010, "_geoloc": {"lat": 1.6508, "lng": 10.2679}}, {"objectID": "Eritrea", "location": "Eritrea", "country": "Eritrea", "confirmed_cases": 10169, "_geoloc": {"lat": 15.1794, "lng": 39.7823}}, {"objectID": "Estonia", "location": "Estonia", "country": "Estonia", "confirmed_cases": 600796, "_geoloc": {"lat": 58.5953, "lng": 25.0136}}, {"objectID": "Eswatini", "location": "Eswatini", "country": "Eswatini", "confirmed_cases": 73390, "_geoloc": {"lat": -26.5225, "lng": 31.4659}}, {"objectID": "Ethiopia", "location": "Ethiopia", "country": "Ethiopia", "confirmed_cases": 493528, "_geoloc": {"lat": 9.145, "lng": 40.4897}}, {"objectID": "Fiji", "location": "Fiji", "country": "Fiji", "confirmed_cases": 68234, "_geoloc": {"lat": -17.7134, "lng": 178.065}}, {"objectID": "Finland", "location": "Finland", "country": "Finland", "confirmed_cases": 1287044, "_geoloc": {"lat": 61.9241, "lng": 25.7482}}, {"objectID": "French Guiana, France", "location": "French Guiana, France", "country": "France", "confirmed_cases": 93925, "_geoloc": {"lat": 4, "lng": -53}}, {"objectID": "French Polynesia, France", "location": "French Polynesia, France", "country": "France", "confirmed_cases": 76588, "_geoloc": {"lat": -17.6797, "lng": -149.4068}}, {"objectID": "Guadeloupe, France", "location": "Guadeloupe, France", "country": "France", "confirmed_cases": 191997, "_geoloc": {"lat": 16.265, "lng": -61.551}}, {"objectID": "Martinique, France", "location": "Martinique, France", "country": "France", "confirmed_cases": 219529, "_geoloc": {"lat": 14.6415, "lng": -61.0242}}, {"objectID": "Mayotte, France", "location": "Mayotte, France", "country": "France", "confirmed_cases": 40243, "_geoloc": {"lat": -12.8275, "lng": 45.1662}}, {"objectID": "New Caledonia, France", "location": "New Caledonia, France", "country": "France", "confirmed_cases": 74275, "_geoloc": {"lat": -20.9043, "lng": 165.618}}, {"objectID": "Reunion, France", "location": "Reunion, France", "country": "France", "confirmed_cases": 475948, "_geoloc": {"lat": -21.1151, "lng": 55.5364}}, {"objectID": "Saint Barthelemy, France", "location": "Saint Barthelemy, France", "country": "France", "confirmed_cases": 5263, "_geoloc": {"lat": 17.9, "lng": -62.8333}}, {"objectID": "Saint Pierre and Miquelon, France", "location": "Saint Pierre and Miquelon, France", "country": "France", "confirmed_cases": 3188, "_geoloc": {"lat": 46.8852, "lng": -56.3159}}, {"objectID": "St Martin, France", "location": "St Martin, France", "country": "France", "confirmed_cases": 11941, "_geoloc": {"lat": 18.0708, "lng": -63.0501}}, {"objectID": "Wallis and Futuna, France", "location": "Wallis and Futuna, France", "country": "France", "confirmed_cases": 761, "_geoloc": {"lat": -14.2938, "lng": -178.1165}}, {"objectID": "France", "location": "France", "country": "France", "confirmed_cases": 34187868, "_geoloc": {"lat": 46.2276, "lng": 2.2137}}, {"objectID": "Gabon", "location": "Gabon", "country": "Gabon", "confirmed_cases": 48691, "_geoloc": {"lat": -0.8037, "lng": 11.6094}}, {"objectID": "Gambia", "location": "Gambia", "country": "Gambia", "confirmed_cases": 12508, "_geoloc": {"lat": 13.4432, "lng": -15.3101}}, {"objectID": "Georgia", "location": "Georgia", "country": "Georgia", "confirmed_cases": 1780691, "_geoloc": {"lat": 42.3154, "lng": 43.3569}}, {"objectID": "Germany", "location": "Germany", "country": "Germany", "confirmed_cases": 33041332, "_geoloc": {"lat": 51.1657, "lng": 10.4515}}, {"objectID": "Ghana", "location": "Ghana", "country": "Ghana", "confirmed_cases": 169100, "_geoloc": {"lat": 7.9465, "lng": -1.0232}}, {"objectID": "Greece", "location": "Greece", "country": "Greece", "confirmed_cases": 4875215, "_geoloc": {"lat": 39.0742, "lng": 21.8243}}, {"objectID": "Grenada", "location": "Grenada", "country": "Grenada", "confirmed_cases": 19536, "_geoloc": {"lat": 12.1165, "lng": -61.679}}, {"objectID": "Guatemala", "location": "Guatemala", "country": "Guatemala", "confirmed_cases": 1120199, "_geoloc": {"lat": 15.7835, "lng": -90.2308}}, {"objectID": "Guinea", "location": "Guinea", "country": "Guinea", "confirmed_cases": 37652, "_geoloc": {"lat": 9.9456, "lng": -9.6966}}, {"objectID": "Guinea-Bissau", "location": "Guinea-Bissau", "country": "Guinea-Bissau", "confirmed_cases": 8796, "_geoloc": {"lat": 11.8037, "lng": -15.1804}}, {"objectID": "Guyana", "location": "Guyana", "country": "Guyana", "confirmed_cases": 71315, "_geoloc": {"lat": 4.8604, "lng": -58.9302}}, {"objectID": "Haiti", "location": "Haiti", "country": "Haiti", "confirmed_cases": 33733, "_geoloc": {"lat": 18.9712, "lng": -72.2852}}, {"objectID": "Holy See", "location": "Holy See", "country": "Holy See", "confirmed_cases": 29, "_geoloc": {"lat": 41.9029, "lng": 12.4534}}, {"objectID": "Honduras", "location": "Honduras", "country": "Honduras", "confirmed_cases": 456391, "_geoloc": {"lat": 15.2, "lng": -86.2419}}, {"objectID": "Hungary", "location": "Hungary", "country": "Hungary", "confirmed_cases": 2082750, "_geoloc": {"lat": 47.1625, "lng": 19.5033}}, {"objectID": "Iceland", "location": "Iceland", "country": "Iceland", "confirmed_cases": 205454, "_geoloc": {"lat": 64.9631, "lng": -19.0208}}, {"objectID": "India", "location": "India", "country": "India", "confirmed_cases": 44575473, "_geoloc": {"lat": 20.5937, "lng": 78.9629}}, {"objectID": "Indonesia", "location": "Indonesia", "country": "Indonesia", "confirmed_cases": 6423873, "_geoloc": {"lat": -0.7893, "lng": 113.9213}}, {"objectID": "Iran", "location": "Iran", "country": "Iran", "confirmed_cases": 7547397, "_geoloc": {"lat": 32.4279, "lng": 53.688}}, {"objectID": "Iraq", "location": "Iraq", "country": "Iraq", "confirmed_cases": 2459505, "_geoloc": {"lat": 33.2232, "lng": 43.6793}}, {"objectID": "Ireland", "location": "Ireland", "country": "Ireland", "confirmed_cases": 1662008, "_geoloc": {"lat": 53.1424, "lng": -7.6921}}, {"objectID": "Israel", "location": "Israel", "country": "Israel", "confirmed_cases": 4657756, "_geoloc": {"lat": 31.0461, "lng": 34.8516}}, {"objectID": "Italy", "location": "Italy", "country": "Italy", "confirmed_cases": 22313612, "_geoloc": {"lat": 41.8719, "lng": 12.5674}}, {"objectID": "Jamaica", "location": "Jamaica", "country": "Jamaica", "confirmed_cases": 151706, "_geoloc": {"lat": 18.1096, "lng": -77.2975}}, {"objectID": "Japan", "location": "Japan", "country": "Japan", "confirmed_cases": 21103798, "_geoloc": {"lat": 36.2048, "lng": 138.2529}}, {"objectID": "Jordan", "location": "Jordan", "country": "Jordan", "confirmed_cases": 1746997, "_geoloc": {"lat": 31.24, "lng": 36.51}}, {"objectID": "Kazakhstan", "location": "Kazakhstan", "country": "Kazakhstan", "confirmed_cases": 1483245, "_geoloc": {"lat": 48.0196, "lng": 66.9237}}, {"objectID": "Kenya", "location": "Kenya", "country": "Kenya", "confirmed_cases": 338390, "_geoloc": {"lat": -0.0236, "lng": 37.9062}}, {"objectID": "Kiribati", "location": "Kiribati", "country": "Kiribati", "confirmed_cases": 3430, "_geoloc": {"lat": -3.3704, "lng": -168.734}}, {"objectID": "Korea, North", "location": "Korea, North", "country": "Korea, North", "confirmed_cases": 1, "_geoloc": {"lat": 40.3399, "lng": 127.5101}}, {"objectID": "Korea, South", "location": "Korea, South", "country": "Korea, South", "confirmed_cases": 24673663, "_geoloc": {"lat": 35.9078, "lng": 127.7669}}, {"objectID": "Kosovo", "location": "Kosovo", "country": "Kosovo", "confirmed_cases": 272045, "_geoloc": {"lat": 42.6026, "lng": 20.903}}, {"objectID": "Kuwait", "location": "Kuwait", "country": "Kuwait", "confirmed_cases": 658520, "_geoloc": {"lat": 29.3117, "lng": 47.4818}}, {"objectID": "Kyrgyzstan", "location": "Kyrgyzstan", "country": "Kyrgyzstan", "confirmed_cases": 206083, "_geoloc": {"lat": 41.2044, "lng": 74.7661}}, {"objectID": "Laos", "location": "Laos", "country": "Laos", "confirmed_cases": 215799, "_geoloc": {"lat": 19.8563, "lng": 102.4955}}, {"objectID": "Latvia", "location": "Latvia", "country": "Latvia", "confirmed_cases": 924651, "_geoloc": {"lat": 56.8796, "lng": 24.6032}}, {"objectID": "Lebanon", "location": "Lebanon", "country": "Lebanon", "confirmed_cases": 1215148, "_geoloc": {"lat": 33.8547, "lng": 35.8623}}, {"objectID": "Lesotho", "location": "Lesotho", "country": "Lesotho", "confirmed_cases": 34490, "_geoloc": {"lat": -29.61, "lng": 28.2336}}, {"objectID": "Liberia", "location": "Liberia", "country": "Liberia", "confirmed_cases": 7961, "_geoloc": {"lat": 6.4281, "lng": -9.4295}}, {"objectID": "Libya", "location": "Libya", "country": "Libya", "confirmed_cases": 506986, "_geoloc": {"lat": 26.3351, "lng": 17.2283}}, {"objectID": "Liechtenstein", "location": "Liechtenstein", "country": "Liechtenstein", "confirmed_cases": 19543, "_geoloc": {"lat": 47.14, "lng": 9.55}}, {"objectID": "Lithuania", "location": "Lithuania", "country": "Lithuania", "confirmed_cases": 1244174, "_geoloc": {"lat": 55.1694, "lng": 23.8813}}, {"objectID": "Luxembourg", "location": "Luxembourg", "country": "Luxembourg", "confirmed_cases": 290074, "_geoloc": {"lat": 49.8153, "lng": 6.1296}}, {"objectID": "Madagascar", "location": "Madagascar", "country": "Madagascar", "confirmed_cases": 66676, "_geoloc": {"lat": -18.7669, "lng": 46.8691}}, {"objectID": "Malawi", "location": "Malawi", "country": "Malawi", "confirmed_cases": 88005, "_geoloc": {"lat": -13.2543, "lng": 34.3015}}, {"objectID": "Malaysia", "location": "Malaysia", "country": "Malaysia", "confirmed_cases": 4833008, "_geoloc": {"lat": 4.2105, "lng": 101.9758}}, {"objectID": "Maldives", "location": "Maldives", "country": "Maldives", "confirmed_cases": 185042, "_geoloc": {"lat": 3.2028, "lng": 73.2207}}, {"objectID": "Mali", "location": "Mali", "country": "Mali", "confirmed_cases": 32607, "_geoloc": {"lat": 17.5707, "lng": -3.9962}}, {"objectID": "Malta", "location": "Malta", "country": "Malta", "confirmed_cases": 114583, "_geoloc": {"lat": 35.9375, "lng": 14.3754}}, {"objectID": "Marshall Islands", "location": "Marshall Islands", "country": "Marshall Islands", "confirmed_cases": 15275, "_geoloc": {"lat": 7.1315, "lng": 171.1845}}, {"objectID": "Mauritania", "location": "Mauritania", "country": "Mauritania", "confirmed_cases": 62794, "_geoloc": {"lat": 21.0079, "lng": -10.9408}}, {"objectID": "Mauritius", "location": "Mauritius", "country": "Mauritius", "confirmed_cases": 261976, "_geoloc": {"lat": -20.3484, "lng": 57.5522}}, {"objectID": "Mexico", "location": "Mexico", "country": "Mexico", "confirmed_cases": 7082034, "_geoloc": {"lat": 23.6345, "lng": -102.5528}}, {"objectID": "Micronesia", "location": "Micronesia", "country": "Micronesia", "confirmed_cases": 10083, "_geoloc": {"lat": 7.4256, "lng": 150.5508}}, {"objectID": "Moldova", "location": "Moldova", "country": "Moldova", "confirmed_cases": 587023, "_geoloc": {"lat": 47.4116, "lng": 28.3699}}, {"objectID": "Monaco", "location": "Monaco", "country": "Monaco", "confirmed_cases": 14572, "_geoloc": {"lat": 43.7333, "lng": 7.4167}}, {"objectID": "Mongolia", "location": "Mongolia", "country": "Mongolia", "confirmed_cases": 982726, "_geoloc": {"lat": 46.8625, "lng": 103.8467}}, {"objectID": "Montenegro", "location": "Montenegro", "country": "Montenegro", "confirmed_cases": 279494, "_geoloc": {"lat": 42.7087, "lng": 19.3744}}, {"objectID": "Morocco", "location": "Morocco", "country": "Morocco", "confirmed_cases": 1264883, "_geoloc": {"lat": 31.7917, "lng": -7.0926}}, {"objectID": "Mozambique", "location": "Mozambique", "country": "Mozambique", "confirmed_cases": 230219, "_geoloc": {"lat": -18.6657, "lng": 35.5296}}, {"objectID": "Namibia", "location": "Namibia", "country": "Namibia", "confirmed_cases": 169253, "_geoloc": {"lat": -22.9576, "lng": 18.4904}}, {"objectID": "Nauru", "location": "Nauru", "country": "Nauru", "confirmed_cases": 4611, "_geoloc": {"lat": -0.5228, "lng": 166.9315}}, {"objectID": "Nepal", "location": "Nepal", "country": "Nepal", "confirmed_cases": 999614, "_geoloc": {"lat": 28.1667, "lng": 84.25}}, {"objectID": "Aruba, Netherlands", "location": "Aruba, Netherlands", "country": "Netherlands", "confirmed_cases": 42970, "_geoloc": {"lat": 12.5211, "lng": -69.9683}}, {"objectID": "Bonaire, Sint Eustatius and Saba, Netherlands", "location": "Bonaire, Sint Eustatius and Saba, Netherlands", "country": "Netherlands", "confirmed_cases": 11323, "_geoloc": {"lat": 12.1784, "lng": -68.2385}}, {"objectID": "Curacao, Netherlands", "location": "Curacao, Netherlands", "country": "Netherlands", "confirmed_cases": 45357, "_geoloc": {"lat": 12.1696, "lng": -68.99}}, {"objectID": "Sint Maarten, Netherlands", "location": "Sint Maarten, Netherlands", "country": "Netherlands", "confirmed_cases": 10863, "_geoloc": {"lat": 18.0425, "lng": -63.0548}}, {"objectID": "Netherlands", "location": "Netherlands", "country": "Netherlands", "confirmed_cases": 8415337, "_geoloc": {"lat": 52.1326, "lng": 5.2913}}, {"objectID": "Cook Islands, New Zealand", "location": "Cook Islands, New Zealand", "country": "New Zealand", "confirmed_cases": 6389, "_geoloc": {"lat": -21.2367, "lng": -159.7777}}, {"objectID": "Niue, New Zealand", "location": "Niue, New Zealand", "country": "New Zealand", "confirmed_cases": 80, "_geoloc": {"lat": -19.0544, "lng": -169.8672}}, {"objectID": "New Zealand", "location": "New Zealand", "country": "New Zealand", "confirmed_cases": 1779476, "_geoloc": {"lat": -40.9006, "lng": 174.886}}, {"objectID": "Nicaragua", "location": "Nicaragua", "country": "Nicaragua", "confirmed_cases": 15045, "_geoloc": {"lat": 12.8654, "lng": -85.2072}}, {"objectID": "Niger", "location": "Niger", "country": "Niger", "confirmed_cases": 9395, "_geoloc": {"lat": 17.6078, "lng": 8.0817}}, {"objectID": "Nigeria", "location": "Nigeria", "country": "Nigeria", "confirmed_cases": 265186, "_geoloc": {"lat": 9.082, "lng": 8.6753}}, {"objectID": "North Macedonia", "location": "North Macedonia", "country": "North Macedonia", "confirmed_cases": 342615, "_geoloc": {"lat": 41.6086, "lng": 21.7453}}, {"objectID": "Norway", "location": "Norway", "country": "Norway", "confirmed_cases": 1462050, "_geoloc": {"lat": 60.472, "lng": 8.4689}}, {"objectID": "Oman", "location": "Oman", "country": "Oman", "confirmed_cases": 397993, "_geoloc": {"lat": 21.5126, "lng": 55.9233}}, {"objectID": "Pakistan", "location": "Pakistan", "country": "Pakistan", "confirmed_cases": 1572316, "_geoloc": {"lat": 30.3753, "lng": 69.3451}}, {"objectID": "Palau", "location": "Palau", "country": "Palau", "confirmed_cases": 5460, "_geoloc": {"lat": 7.515, "lng": 134.5825}}, {"objectID": "Panama", "location": "Panama", "country": "Panama", "confirmed_cases": 986866, "_geoloc": {"lat": 8.538, "lng": -80.7821}}, {"objectID": "Papua New Guinea", "location": "Papua New Guinea", "country": "Papua New Guinea", "confirmed_cases": 44981, "_geoloc": {"lat": -6.315, "lng": 143.9555}}, {"objectID": "Paraguay", "location": "Paraguay", "country": "Paraguay", "confirmed_cases": 716059, "_geoloc": {"lat": -23.4425, "lng": -58.4438}}, {"objectID": "Peru", "location": "Peru", "country": "Peru", "confirmed_cases": 4141410, "_geoloc": {"lat": -9.19, "lng": -75.0152}}, {"objectID": "Philippines", "location": "Philippines", "country": "Philippines", "confirmed_cases": 3940201, "_geoloc": {"lat": 12.8797, "lng": 121.774}}, {"objectID": "Poland", "location": "Poland", "country": "Poland", "confirmed_cases": 6274048, "_geoloc": {"lat": 51.9194, "lng": 19.1451}}, {"objectID": "Portugal", "location": "Portugal", "country": "Portugal", "confirmed_cases": 5480864, "_geoloc": {"lat": 39.3999, "lng": -8.2245}}, {"objectID": "Qatar", "location": "Qatar", "country": "Qatar", "confirmed_cases": 447133, "_geoloc": {"lat": 25.3548, "lng": 51.1839}}, {"objectID": "Romania", "location": "Romania", "country": "Romania", "confirmed_cases": 3262909, "_geoloc": {"lat": 45.9432, "lng": 24.9668}}, {"objectID": "Russia", "location": "Russia", "country": "Russia", "confirmed_cases": 20533598, "_geoloc": {"lat": 61.524, "lng": 105.3188}}, {"objectID": "Rwanda", "location": "Rwanda", "country": "Rwanda", "confirmed_cases": 132495, "_geoloc": {"lat": -1.9403, "lng": 29.8739}}, {"objectID": "Saint Kitts and Nevis", "location": "Saint Kitts and Nevis", "country": "Saint Kitts and Nevis", "confirmed_cases": 6543, "_geoloc": {"lat": 17.3578, "lng": -62.783}}, {"objectID": "Saint Lucia", "location": "Saint Lucia", "country": "Saint Lucia", "confirmed_cases": 29408, "_geoloc": {"lat": 13.9094, "lng": -60.9789}}, {"objectID": "Saint Vincent and the Grenadines", "location": "Saint Vincent and the Grenadines", "country": "Saint Vincent and the Grenadines", "confirmed_cases": 9448, "_geoloc": {"lat": 12.9843, "lng": -61.2872}}, {"objectID": "Samoa", "location": "Samoa", "country": "Samoa", "confirmed_cases": 15925, "_geoloc": {"lat": -13.759, "lng": -172.1046}}, {"objectID": "San Marino", "location": "San Marino", "country": "San Marino", "confirmed_cases": 20671, "_geoloc": {"lat": 43.9424, "lng": 12.4578}}, {"objectID": "Sao Tome and Principe", "location": "Sao Tome and Principe", "country": "Sao Tome and Principe", "confirmed_cases": 6230, "_geoloc": {"lat": 0.1864, "lng": 6.6131}}, {"objectID": "Saudi Arabia", "location": "Saudi Arabia", "country": "Saudi Arabia", "confirmed_cases": 816000, "_geoloc": {"lat": 23.8859, "lng": 45.0792}}, {"objectID": "Senegal", "location": "Senegal", "country": "Senegal", "confirmed_cases": 88339, "_geoloc": {"lat": 14.4974, "lng": -14.4524}}, {"objectID": "Serbia", "location": "Serbia", "country": "Serbia", "confirmed_cases": 2351526, "_geoloc": {"lat": 44.0165, "lng": 21.0059}}, {"objectID": "Seychelles", "location": "Seychelles", "country": "Seychelles", "confirmed_cases": 46358, "_geoloc": {"lat": -4.6796, "lng": 55.492}}, {"objectID": "Sierra Leone", "location": "Sierra Leone", "country": "Sierra Leone", "confirmed_cases": 7751, "_geoloc": {"lat": 8.4606, "lng": -11.7799}}, {"objectID": "Singapore", "location": "Singapore", "country": "Singapore", "confirmed_cases": 1892947, "_geoloc": {"lat": 1.2833, "lng": 103.8333}}, {"objectID": "Slovakia", "location": "Slovakia", "country": "Slovakia", "confirmed_cases": 2621147, "_geoloc": {"lat": 48.669, "lng": 19.699}}, {"objectID": "Slovenia", "location": "Slovenia", "country": "Slovenia", "confirmed_cases": 1171695, "_geoloc": {"lat": 46.1512, "lng": 14.9955}}, {"objectID": "Solomon Islands", "location": "Solomon Islands", "country": "Solomon Islands", "confirmed_cases": 21544, "_geoloc": {"lat": -9.6457, "lng": 160.1562}}, {"objectID": "Somalia", "location": "Somalia", "country": "Somalia", "confirmed_cases": 27207, "_geoloc": {"lat": 5.1521, "lng": 46.1996}}, {"objectID": "South Africa", "location": "South Africa", "country": "South Africa", "confirmed_cases": 4017788, "_geoloc": {"lat": -30.5595, "lng": 22.9375}}, {"objectID": "South Sudan", "location": "South Sudan", "country": "South Sudan", "confirmed_cases": 17823, "_geoloc": {"lat": 6.877, "lng": 31.307}}, {"objectID": "Spain", "location": "Spain", "country": "Spain", "confirmed_cases": 13403502, "_geoloc": {"lat": 40.4637, "lng": -3.7492}}, {"objectID": "Sri Lanka", "location": "Sri Lanka", "country": "Sri Lanka", "confirmed_cases": 670718, "_geoloc": {"lat": 7.8731, "lng": 80.7718}}, {"objectID": "Sudan", "location": "Sudan", "country": "Sudan", "confirmed_cases": 63285, "_geoloc": {"lat": 12.8628, "lng": 30.2176}}, {"objectID": "Summer Olympics 2020", "location": "Summer Olympics 2020", "country": "Summer Olympics 2020", "confirmed_cases": 865, "_geoloc": {"lat": 35.6491, "lng": 139.7737}}, {"objectID": "Suriname", "location": "Suriname", "country": "Suriname", "confirmed_cases": 81099, "_geoloc": {"lat": 3.9193, "lng": -56.0278}}, {"objectID": "Sweden", "location": "Sweden", "country": "Sweden", "confirmed_cases": 2583370, "_geoloc": {"lat": 60.1282, "lng": 18.6435}}, {"objectID": "Switzerland", "location": "Switzerland", "country": "Switzerland", "confirmed_cases": 4087087, "_geoloc": {"lat": 46.8182, "lng": 8.2275}}, {"objectID": "Syria", "location": "Syria", "country": "Syria", "confirmed_cases": 57280, "_geoloc": {"lat": 34.8021, "lng": 38.9968}}, {"objectID": "Taiwan*", "location": "Taiwan*", "country": "Taiwan*", "confirmed_cases": 6278794, "_geoloc": {"lat": 23.7, "lng": 121}}, {"objectID": "Tajikistan", "location": "Tajikistan", "country": "Tajikistan", "confirmed_cases": 17786, "_geoloc": {"lat": 38.861, "lng": 71.2761}}, {"objectID": "Tanzania", "location": "Tanzania", "country": "Tanzania", "confirmed_cases": 39341, "_geoloc": {"lat": -6.369, "lng": 34.8888}}, {"objectID": "Thailand", "location": "Thailand", "country": "Thailand", "confirmed_cases": 4679022, "_geoloc": {"lat": 15.87, "lng": 100.9925}}, {"objectID": "Timor-Leste", "location": "Timor-Leste", "country": "Timor-Leste", "confirmed_cases": 23253, "_geoloc": {"lat": -8.8742, "lng": 125.7275}}, {"objectID": "Togo", "location": "Togo", "country": "Togo", "confirmed_cases": 38987, "_geoloc": {"lat": 8.6195, "lng": 0.8248}}, {"objectID": "Tonga", "location": "Tonga", "country": "Tonga", "confirmed_cases": 16182, "_geoloc": {"lat": -21.179, "lng": -175.1982}}, {"objectID": "Trinidad and Tobago", "location": "Trinidad and Tobago", "country": "Trinidad and Tobago", "confirmed_cases": 182597, "_geoloc": {"lat": 10.6918, "lng": -61.2225}}, {"objectID": "Tunisia", "location": "Tunisia", "country": "Tunisia", "confirmed_cases": 1145345, "_geoloc": {"lat": 33.8869, "lng": 9.5375}}, {"objectID": "Turkey", "location": "Turkey", "country": "Turkey", "confirmed_cases": 16873793, "_geoloc": {"lat": 38.9637, "lng": 35.2433}}, {"objectID": "Tuvalu", "location": "Tuvalu", "country": "Tuvalu", "confirmed_cases": 20, "_geoloc": {"lat": -7.1095, "lng": 177.6493}}, {"objectID": "Uganda", "location": "Uganda", "country": "Uganda", "confirmed_cases": 169396, "_geoloc": {"lat": 1.3733, "lng": 32.2903}}, {"objectID": "Ukraine", "location": "Ukraine", "country": "Ukraine", "confirmed_cases": 5432591, "_geoloc": {"lat": 48.3794, "lng": 31.1656}}, {"objectID": "United Arab Emirates", "location": "United Arab Emirates", "country": "United Arab Emirates", "confirmed_cases": 1025910, "_geoloc": {"lat": 23.4241, "lng": 53.8478}}, {"objectID": "Anguilla, United Kingdom", "location": "Anguilla, United Kingdom", "country": "United Kingdom", "confirmed_cases": 3858, "_geoloc": {"lat": 18.2206, "lng": -63.0686}}, {"objectID": "Bermuda, United Kingdom", "location": "Bermuda, United Kingdom", "country": "United Kingdom", "confirmed_cases": 18122, "_geoloc": {"lat": 32.3078, "lng": -64.7505}}, {"objectID": "British Virgin Islands, United Kingdom", "location": "British Virgin Islands, United Kingdom", "country": "United Kingdom", "confirmed_cases": 7305, "_geoloc": {"lat": 18.4207, "lng": -64.64}}, {"objectID": "Cayman Islands, United Kingdom", "location": "Cayman Islands, United Kingdom", "country": "United Kingdom", "confirmed_cases": 30545, "_geoloc": {"lat": 19.3133, "lng": -81.2546}}, {"objectID": "Channel Islands, United Kingdom", "location": "Channel Islands, United Kingdom", "country": "United Kingdom", "confirmed_cases": 0, "_geoloc": {"lat": 49.3723, "lng": -2.3644}}, {"objectID": "Falkland Islands (Malvinas), United Kingdom", "location": "Falkland Islands (Malvinas), United Kingdom", "country": "United Kingdom", "confirmed_cases": 1886, "_geoloc": {"lat": -51.7963, "lng": -59.5236}}, {"objectID": "Gibraltar, United Kingdom", "location": "Gibraltar, United Kingdom", "country": "United Kingdom", "confirmed_cases": 20092, "_geoloc": {"lat": 36.1408, "lng": -5.3536}}, {"objectID": "Guernsey, United Kingdom", "location": "Guernsey, United Kingdom", "country": "United Kingdom", "confirmed_cases": 31099, "_geoloc": {"lat": 49.4482, "lng": -2.5895}}, {"objectID": "Isle of Man, United Kingdom", "location": "Isle of Man, United Kingdom", "country": "United Kingdom", "confirmed_cases": 38008, "_geoloc": {"lat": 54.2361, "lng": -4.5481}}, {"objectID": "Jersey, United Kingdom", "location": "Jersey, United Kingdom", "country": "United Kingdom", "confirmed_cases": 59874, "_geoloc": {"lat": 49.2138, "lng": -2.1358}}, {"objectID": "Montserrat, United Kingdom", "location": "Montserrat, United Kingdom", "country": "United Kingdom", "confirmed_cases": 1392, "_geoloc": {"lat": 16.7425, "lng": -62.1874}}, {"objectID": "Pitcairn Islands, United Kingdom", "location": "Pitcairn Islands, United Kingdom", "country": "United Kingdom", "confirmed_cases": 4, "_geoloc": {"lat": -24.3768, "lng": -128.3242}}, {"objectID": "Saint Helena, Ascension and Tristan da Cunha, United Kingdom", "location": "Saint Helena, Ascension and Tristan da Cunha, United Kingdom", "country": "United Kingdom", "confirmed_cases": 7, "_geoloc": {"lat": -7.9467, "lng": -14.3559}}, {"objectID": "Turks and Caicos Islands, United Kingdom", "location": "Turks and Caicos Islands, United Kingdom", "country": "United Kingdom", "confirmed_cases": 6380, "_geoloc": {"lat": 21.694, "lng": -71.7979}}, {"objectID": "United Kingdom", "location": "United Kingdom", "country": "United Kingdom", "confirmed_cases": 23621952, "_geoloc": {"lat": 55.3781, "lng": -3.436}}, {"objectID": "Uruguay", "location": "Uruguay", "country": "Uruguay", "confirmed_cases": 985422, "_geoloc": {"lat": -32.5228, "lng": -55.7658}}, {"objectID": "Uzbekistan", "location": "Uzbekistan", "country": "Uzbekistan", "confirmed_cases": 244160, "_geoloc": {"lat": 41.3775, "lng": 64.5853}}, {"objectID": "Vanuatu", "location": "Vanuatu", "country": "Vanuatu", "confirmed_cases": 11950, "_geoloc": {"lat": -15.3767, "lng": 166.9592}}, {"objectID": "Venezuela", "location": "Venezuela", "country": "Venezuela", "confirmed_cases": 544531, "_geoloc": {"lat": 6.4238, "lng": -66.5897}}, {"objectID": "Vietnam", "location": "Vietnam", "country": "Vietnam", "confirmed_cases": 11473733, "_geoloc": {"lat": 14.0583, "lng": 108.2772}}, {"objectID": "West Bank and Gaza", "location": "West Bank and Gaza", "country": "West Bank and Gaza", "confirmed_cases": 702768, "_geoloc": {"lat": 31.9522, "lng": 35.2332}}, {"objectID": "Winter Olympics 2022", "location": "Winter Olympics 2022", "country": "Winter Olympics 2022", "confirmed_cases": 535, "_geoloc": {"lat": 39.9042, "lng": 116.4074}}, {"objectID": "Yemen", "location": "Yemen", "country": "Yemen", "confirmed_cases": 11935, "_geoloc": {"lat": 15.5527, "lng": 48.5164}}, {"objectID": "Zambia", "location": "Zambia", "country": "Zambia", "confirmed_cases": 333439, "_geoloc": {"lat": -13.1339, "lng": 27.8493}}, {"objectID": "Zimbabwe", "location": "Zimbabwe", "country": "Zimbabwe", "confirmed_cases": 257342, "_geoloc": {"lat": -19.0154, "lng": 29.1549}}, {"objectID": "Autauga, Alabama, US", "location": "Autauga, Alabama", "country": "US", "confirmed_cases": 18359, "_geoloc": {"lat": 32.5395, "lng": -86.6441}}, {"objectID": "Baldwin, Alabama, US", "location": "Baldwin, Alabama", "country": "US", "confirmed_cases": 65544, "_geoloc": {"lat": 30.7277, "lng": -87.7221}}, {"objectID": "Barbour, Alabama, US", "location": "Barbour, Alabama", "country": "US", "confirmed_cases": 6881, "_geoloc": {"lat": 31.8683, "lng": -85.3871}}, {"objectID": "Bibb, Alabama, US", "location": "Bibb, Alabama", "country": "US", "confirmed_cases": 7504, "_geoloc": {"lat": 32.9964, "lng": -87.1251}}, {"objectID": "Blount, Alabama, US", "location": "Blount, Alabama", "country": "US", "confirmed_cases": 16875, "_geoloc": {"lat": 33.9821, "lng": -86.5679}}, {"objectID": "Bullock, Alabama, US", "location": "Bullock, Alabama", "country": "US", "confirmed_cases": 2797, "_geoloc": {"lat": 32.1003, "lng": -85.7127}}, {"objectID": "Butler, Alabama, US", "location": "Butler, Alabama", "country": "US", "confirmed_cases": 6040, "_geoloc": {"lat": 31.753, "lng": -86.6806}}, {"objectID": "Calhoun, Alabama, US", "location": "Calhoun, Alabama", "country": "US", "confirmed_cases": 37492, "_geoloc": {"lat": 33.7748, "lng": -85.8263}}, {"objectID": "Chambers, Alabama, US", "location": "Chambers, Alabama", "country": "US", "confirmed_cases": 9974, "_geoloc": {"lat": 32.9136, "lng": -85.3907}}, {"objectID": "Cherokee, Alabama, US", "location": "Cherokee, Alabama", "country": "US", "confirmed_cases": 5991, "_geoloc": {"lat": 34.1781, "lng": -85.6064}}, {"objectID": "Chilton, Alabama, US", "location": "Chilton, Alabama", "country": "US", "confirmed_cases": 12354, "_geoloc": {"lat": 32.8504, "lng": -86.7173}}, {"objectID": "Choctaw, Alabama, US", "location": "Choctaw, Alabama", "country": "US", "confirmed_cases": 2180, "_geoloc": {"lat": 32.0223, "lng": -88.2656}}, {"objectID": "Clarke, Alabama, US", "location": "Clarke, Alabama", "country": "US", "confirmed_cases": 8019, "_geoloc": {"lat": 31.681, "lng": -87.8355}}, {"objectID": "Clay, Alabama, US", "location": "Clay, Alabama", "country": "US", "confirmed_cases": 4733, "_geoloc": {"lat": 33.2698, "lng": -85.8584}}, {"objectID": "Cleburne, Alabama, US", "location": "Cleburne, Alabama", "country": "US", "confirmed_cases": 4092, "_geoloc": {"lat": 33.6768, "lng": -85.5201}}, {"objectID": "Coffee, Alabama, US", "location": "Coffee, Alabama", "country": "US", "confirmed_cases": 15967, "_geoloc": {"lat": 31.3993, "lng": -85.989}}, {"objectID": "Colbert, Alabama, US", "location": "Colbert, Alabama", "country": "US", "confirmed_cases": 19434, "_geoloc": {"lat": 34.6985, "lng": -87.8017}}, {"objectID": "Conecuh, Alabama, US", "location": "Conecuh, Alabama", "country": "US", "confirmed_cases": 3338, "_geoloc": {"lat": 31.434, "lng": -86.9932}}, {"objectID": "Coosa, Alabama, US", "location": "Coosa, Alabama", "country": "US", "confirmed_cases": 3496, "_geoloc": {"lat": 32.9369, "lng": -86.2485}}, {"objectID": "Covington, Alabama, US", "location": "Covington, Alabama", "country": "US", "confirmed_cases": 10899, "_geoloc": {"lat": 31.2478, "lng": -86.4505}}, {"objectID": "Crenshaw, Alabama, US", "location": "Crenshaw, Alabama", "country": "US", "confirmed_cases": 4385, "_geoloc": {"lat": 31.7294, "lng": -86.3159}}, {"objectID": "Cullman, Alabama, US", "location": "Cullman, Alabama", "country": "US", "confirmed_cases": 29302, "_geoloc": {"lat": 34.1302, "lng": -86.8689}}, {"objectID": "Dale, Alabama, US", "location": "Dale, Alabama", "country": "US", "confirmed_cases": 15338, "_geoloc": {"lat": 31.4304, "lng": -85.611}}, {"objectID": "Dallas, Alabama, US", "location": "Dallas, Alabama", "country": "US", "confirmed_cases": 10069, "_geoloc": {"lat": 32.3269, "lng": -87.1087}}, {"objectID": "DeKalb, Alabama, US", "location": "DeKalb, Alabama", "country": "US", "confirmed_cases": 21140, "_geoloc": {"lat": 34.4595, "lng": -85.8078}}, {"objectID": "Elmore, Alabama, US", "location": "Elmore, Alabama", "country": "US", "confirmed_cases": 27610, "_geoloc": {"lat": 32.5979, "lng": -86.1442}}, {"objectID": "Escambia, Alabama, US", "location": "Escambia, Alabama", "country": "US", "confirmed_cases": 11560, "_geoloc": {"lat": 31.1257, "lng": -87.1592}}, {"objectID": "Etowah, Alabama, US", "location": "Etowah, Alabama", "country": "US", "confirmed_cases": 31818, "_geoloc": {"lat": 34.0457, "lng": -86.0405}}, {"objectID": "Fayette, Alabama, US", "location": "Fayette, Alabama", "country": "US", "confirmed_cases": 5512, "_geoloc": {"lat": 33.7208, "lng": -87.7389}}, {"objectID": "Franklin, Alabama, US", "location": "Franklin, Alabama", "country": "US", "confirmed_cases": 11216, "_geoloc": {"lat": 34.4424, "lng": -87.8429}}, {"objectID": "Geneva, Alabama, US", "location": "Geneva, Alabama", "country": "US", "confirmed_cases": 7372, "_geoloc": {"lat": 31.0939, "lng": -85.8357}}, {"objectID": "Greene, Alabama, US", "location": "Greene, Alabama", "country": "US", "confirmed_cases": 2135, "_geoloc": {"lat": 32.855, "lng": -87.9568}}, {"objectID": "Hale, Alabama, US", "location": "Hale, Alabama", "country": "US", "confirmed_cases": 5372, "_geoloc": {"lat": 32.7604, "lng": -87.6328}}, {"objectID": "Henry, Alabama, US", "location": "Henry, Alabama", "country": "US", "confirmed_cases": 5378, "_geoloc": {"lat": 31.5115, "lng": -85.2427}}, {"objectID": "Houston, Alabama, US", "location": "Houston, Alabama", "country": "US", "confirmed_cases": 30221, "_geoloc": {"lat": 31.152, "lng": -85.2994}}, {"objectID": "Jackson, Alabama, US", "location": "Jackson, Alabama", "country": "US", "confirmed_cases": 16927, "_geoloc": {"lat": 34.7814, "lng": -85.9975}}, {"objectID": "Jefferson, Alabama, US", "location": "Jefferson, Alabama", "country": "US", "confirmed_cases": 218631, "_geoloc": {"lat": 33.5555, "lng": -86.8951}}, {"objectID": "Lamar, Alabama, US", "location": "Lamar, Alabama", "country": "US", "confirmed_cases": 4375, "_geoloc": {"lat": 33.78, "lng": -88.0967}}, {"objectID": "Lauderdale, Alabama, US", "location": "Lauderdale, Alabama", "country": "US", "confirmed_cases": 28147, "_geoloc": {"lat": 34.9017, "lng": -87.6562}}, {"objectID": "Lawrence, Alabama, US", "location": "Lawrence, Alabama", "country": "US", "confirmed_cases": 8843, "_geoloc": {"lat": 34.5204, "lng": -87.3107}}, {"objectID": "Lee, Alabama, US", "location": "Lee, Alabama", "country": "US", "confirmed_cases": 44084, "_geoloc": {"lat": 32.6015, "lng": -85.3513}}, {"objectID": "Limestone, Alabama, US", "location": "Limestone, Alabama", "country": "US", "confirmed_cases": 29619, "_geoloc": {"lat": 34.8119, "lng": -86.9831}}, {"objectID": "Lowndes, Alabama, US", "location": "Lowndes, Alabama", "country": "US", "confirmed_cases": 3061, "_geoloc": {"lat": 32.1597, "lng": -86.6516}}, {"objectID": "Macon, Alabama, US", "location": "Macon, Alabama", "country": "US", "confirmed_cases": 4787, "_geoloc": {"lat": 32.3876, "lng": -85.6927}}, {"objectID": "Madison, Alabama, US", "location": "Madison, Alabama", "country": "US", "confirmed_cases": 106833, "_geoloc": {"lat": 34.7633, "lng": -86.5507}}, {"objectID": "Marengo, Alabama, US", "location": "Marengo, Alabama", "country": "US", "confirmed_cases": 5806, "_geoloc": {"lat": 32.2477, "lng": -87.788}}, {"objectID": "Marion, Alabama, US", "location": "Marion, Alabama", "country": "US", "confirmed_cases": 9326, "_geoloc": {"lat": 34.137, "lng": -87.887}}, {"objectID": "Marshall, Alabama, US", "location": "Marshall, Alabama", "country": "US", "confirmed_cases": 30873, "_geoloc": {"lat": 34.3698, "lng": -86.3049}}, {"objectID": "Mobile, Alabama, US", "location": "Mobile, Alabama", "country": "US", "confirmed_cases": 127869, "_geoloc": {"lat": 30.7847, "lng": -88.2084}}, {"objectID": "Monroe, Alabama, US", "location": "Monroe, Alabama", "country": "US", "confirmed_cases": 6160, "_geoloc": {"lat": 31.5673, "lng": -87.37}}, {"objectID": "Montgomery, Alabama, US", "location": "Montgomery, Alabama", "country": "US", "confirmed_cases": 66594, "_geoloc": {"lat": 32.2207, "lng": -86.2097}}, {"objectID": "Morgan, Alabama, US", "location": "Morgan, Alabama", "country": "US", "confirmed_cases": 42753, "_geoloc": {"lat": 34.455, "lng": -86.8548}}, {"objectID": "Perry, Alabama, US", "location": "Perry, Alabama", "country": "US", "confirmed_cases": 2479, "_geoloc": {"lat": 32.6405, "lng": -87.2977}}, {"objectID": "Pickens, Alabama, US", "location": "Pickens, Alabama", "country": "US", "confirmed_cases": 5950, "_geoloc": {"lat": 33.2809, "lng": -88.0882}}, {"objectID": "Pike, Alabama, US", "location": "Pike, Alabama", "country": "US", "confirmed_cases": 8708, "_geoloc": {"lat": 31.804, "lng": -85.9408}}, {"objectID": "Randolph, Alabama, US", "location": "Randolph, Alabama", "country": "US", "confirmed_cases": 5860, "_geoloc": {"lat": 33.2953, "lng": -85.4571}}, {"objectID": "Russell, Alabama, US", "location": "Russell, Alabama", "country": "US", "confirmed_cases": 12001, "_geoloc": {"lat": 32.2873, "lng": -85.1842}}, {"objectID": "Shelby, Alabama, US", "location": "Shelby, Alabama", "country": "US", "confirmed_cases": 70719, "_geoloc": {"lat": 33.2688, "lng": -86.6623}}, {"objectID": "St. Clair, Alabama, US", "location": "St. Clair, Alabama", "country": "US", "confirmed_cases": 29994, "_geoloc": {"lat": 33.719, "lng": -86.3103}}, {"objectID": "Sumter, Alabama, US", "location": "Sumter, Alabama", "country": "US", "confirmed_cases": 2950, "_geoloc": {"lat": 32.5912, "lng": -88.1992}}, {"objectID": "Talladega, Alabama, US", "location": "Talladega, Alabama", "country": "US", "confirmed_cases": 26545, "_geoloc": {"lat": 33.3782, "lng": -86.1689}}, {"objectID": "Tallapoosa, Alabama, US", "location": "Tallapoosa, Alabama", "country": "US", "confirmed_cases": 13536, "_geoloc": {"lat": 32.867, "lng": -85.7983}}, {"objectID": "Tuscaloosa, Alabama, US", "location": "Tuscaloosa, Alabama", "country": "US", "confirmed_cases": 65661, "_geoloc": {"lat": 33.2873, "lng": -87.5256}}, {"objectID": "Walker, Alabama, US", "location": "Walker, Alabama", "country": "US", "confirmed_cases": 22232, "_geoloc": {"lat": 33.8027, "lng": -87.3003}}, {"objectID": "Washington, Alabama, US", "location": "Washington, Alabama", "country": "US", "confirmed_cases": 4157, "_geoloc": {"lat": 31.4093, "lng": -88.2069}}, {"objectID": "Wilcox, Alabama, US", "location": "Wilcox, Alabama", "country": "US", "confirmed_cases": 3413, "_geoloc": {"lat": 31.9877, "lng": -87.3089}}, {"objectID": "Winston, Alabama, US", "location": "Winston, Alabama", "country": "US", "confirmed_cases": 8614, "_geoloc": {"lat": 34.1503, "lng": -87.3733}}, {"objectID": "Aleutians East, Alaska, US", "location": "Aleutians East, Alaska", "country": "US", "confirmed_cases": 1270, "_geoloc": {"lat": 55.3222, "lng": -161.9722}}, {"objectID": "Aleutians West, Alaska, US", "location": "Aleutians West, Alaska", "country": "US", "confirmed_cases": 1886, "_geoloc": {"lat": 52.3233, "lng": -174.1596}}, {"objectID": "Anchorage, Alaska, US", "location": "Anchorage, Alaska", "country": "US", "confirmed_cases": 120454, "_geoloc": {"lat": 61.15, "lng": -149.1427}}, {"objectID": "Bethel, Alaska, US", "location": "Bethel, Alaska", "country": "US", "confirmed_cases": 12091, "_geoloc": {"lat": 60.9098, "lng": -159.8562}}, {"objectID": "Bristol Bay, Alaska, US", "location": "Bristol Bay, Alaska", "country": "US", "confirmed_cases": 0, "_geoloc": {"lat": 58.7451, "lng": -156.7011}}, {"objectID": "Bristol Bay plus Lake and Peninsula, Alaska, US", "location": "Bristol Bay plus Lake and Peninsula, Alaska", "country": "US", "confirmed_cases": 1197, "_geoloc": {"lat": 58.624, "lng": -156.2141}}, {"objectID": "Chugach, Alaska, US", "location": "Chugach, Alaska", "country": "US", "confirmed_cases": 2363, "_geoloc": {"lat": 61.1667, "lng": -149.9}}, {"objectID": "Copper River, Alaska, US", "location": "Copper River, Alaska", "country": "US", "confirmed_cases": 1274, "_geoloc": {"lat": 60.3886, "lng": -162.8905}}, {"objectID": "Denali, Alaska, US", "location": "Denali, Alaska", "country": "US", "confirmed_cases": 1793, "_geoloc": {"lat": 63.6726, "lng": -150.0076}}, {"objectID": "Dillingham, Alaska, US", "location": "Dillingham, Alaska", "country": "US", "confirmed_cases": 2149, "_geoloc": {"lat": 59.796, "lng": -158.2382}}, {"objectID": "Fairbanks North Star, Alaska, US", "location": "Fairbanks North Star, Alaska", "country": "US", "confirmed_cases": 32494, "_geoloc": {"lat": 64.8073, "lng": -146.5693}}, {"objectID": "Haines, Alaska, US", "location": "Haines, Alaska", "country": "US", "confirmed_cases": 801, "_geoloc": {"lat": 59.0989, "lng": -135.468}}, {"objectID": "Hoonah-Angoon, Alaska, US", "location": "Hoonah-Angoon, Alaska", "country": "US", "confirmed_cases": 0, "_geoloc": {"lat": 58.2931, "lng": -135.6424}}, {"objectID": "Juneau, Alaska, US", "location": "Juneau, Alaska", "country": "US", "confirmed_cases": 11450, "_geoloc": {"lat": 58.4503, "lng": -134.2004}}, {"objectID": "Kenai Peninsula, Alaska, US", "location": "Kenai Peninsula, Alaska", "country": "US", "confirmed_cases": 21926, "_geoloc": {"lat": 60.2443, "lng": -151.5389}}, {"objectID": "Ketchikan Gateway, Alaska, US", "location": "Ketchikan Gateway, Alaska", "country": "US", "confirmed_cases": 5023, "_geoloc": {"lat": 55.5745, "lng": -130.9756}}, {"objectID": "Kodiak Island, Alaska, US", "location": "Kodiak Island, Alaska", "country": "US", "confirmed_cases": 5669, "_geoloc": {"lat": 57.6553, "lng": -153.7494}}, {"objectID": "Kusilvak, Alaska, US", "location": "Kusilvak, Alaska", "country": "US", "confirmed_cases": 4604, "_geoloc": {"lat": 62.1543, "lng": -163.3968}}, {"objectID": "Matanuska-Susitna, Alaska, US", "location": "Matanuska-Susitna, Alaska", "country": "US", "confirmed_cases": 39620, "_geoloc": {"lat": 62.3131, "lng": -149.5742}}, {"objectID": "Nome, Alaska, US", "location": "Nome, Alaska", "country": "US", "confirmed_cases": 6774, "_geoloc": {"lat": 64.9032, "lng": -164.0354}}, {"objectID": "North Slope, Alaska, US", "location": "North Slope, Alaska", "country": "US", "confirmed_cases": 5216, "_geoloc": {"lat": 69.3148, "lng": -153.4836}}, {"objectID": "Northwest Arctic, Alaska, US", "location": "Northwest Arctic, Alaska", "country": "US", "confirmed_cases": 5286, "_geoloc": {"lat": 67.0492, "lng": -159.7504}}, {"objectID": "Petersburg, Alaska, US", "location": "Petersburg, Alaska", "country": "US", "confirmed_cases": 901, "_geoloc": {"lat": 57.1398, "lng": -132.9541}}, {"objectID": "Prince of Wales-Hyder, Alaska, US", "location": "Prince of Wales-Hyder, Alaska", "country": "US", "confirmed_cases": 1770, "_geoloc": {"lat": 55.7626, "lng": -133.0512}}, {"objectID": "Sitka, Alaska, US", "location": "Sitka, Alaska", "country": "US", "confirmed_cases": 3347, "_geoloc": {"lat": 57.2412, "lng": -135.3207}}, {"objectID": "Skagway, Alaska, US", "location": "Skagway, Alaska", "country": "US", "confirmed_cases": 671, "_geoloc": {"lat": 59.5615, "lng": -135.3338}}, {"objectID": "Southeast Fairbanks, Alaska, US", "location": "Southeast Fairbanks, Alaska", "country": "US", "confirmed_cases": 2346, "_geoloc": {"lat": 63.8769, "lng": -143.2128}}, {"objectID": "Valdez-Cordova, Alaska, US", "location": "Valdez-Cordova, Alaska", "country": "US", "confirmed_cases": 0, "_geoloc": {"lat": 61.475, "lng": -144.7127}}, {"objectID": "Wrangell, Alaska, US", "location": "Wrangell, Alaska", "country": "US", "confirmed_cases": 792, "_geoloc": {"lat": 56.3202, "lng": -132.0584}}, {"objectID": "Yakutat plus Hoonah-Angoon, Alaska, US", "location": "Yakutat plus Hoonah-Angoon, Alaska", "country": "US", "confirmed_cases": 920, "_geoloc": {"lat": 59.891, "lng": -140.3601}}, {"objectID": "Yukon-Koyukuk, Alaska, US", "location": "Yukon-Koyukuk, Alaska", "country": "US", "confirmed_cases": 1670, "_geoloc": {"lat": 65.5082, "lng": -151.3907}}, {"objectID": "American Samoa, US", "location": "American Samoa, US", "country": "US", "confirmed_cases": 8244, "_geoloc": {"lat": -14.271, "lng": -170.132}}, {"objectID": "Apache, Arizona, US", "location": "Apache, Arizona", "country": "US", "confirmed_cases": 31197, "_geoloc": {"lat": 35.3947, "lng": -109.4892}}, {"objectID": "Cochise, Arizona, US", "location": "Cochise, Arizona", "country": "US", "confirmed_cases": 36043, "_geoloc": {"lat": 31.8793, "lng": -109.7516}}, {"objectID": "Coconino, Arizona, US", "location": "Coconino, Arizona", "country": "US", "confirmed_cases": 49546, "_geoloc": {"lat": 35.8388, "lng": -111.7707}}, {"objectID": "Gila, Arizona, US", "location": "Gila, Arizona", "country": "US", "confirmed_cases": 19780, "_geoloc": {"lat": 33.8019, "lng": -110.8133}}, {"objectID": "Graham, Arizona, US", "location": "Graham, Arizona", "country": "US", "confirmed_cases": 13381, "_geoloc": {"lat": 32.9317, "lng": -109.8882}}, {"objectID": "Greenlee, Arizona, US", "location": "Greenlee, Arizona", "country": "US", "confirmed_cases": 2465, "_geoloc": {"lat": 33.215, "lng": -109.2405}}, {"objectID": "La Paz, Arizona, US", "location": "La Paz, Arizona", "country": "US", "confirmed_cases": 5746, "_geoloc": {"lat": 33.7285, "lng": -113.981}}, {"objectID": "Maricopa, Arizona, US", "location": "Maricopa, Arizona", "country": "US", "confirmed_cases": 1423388, "_geoloc": {"lat": 33.3484, "lng": -112.4918}}, {"objectID": "Mohave, Arizona, US", "location": "Mohave, Arizona", "country": "US", "confirmed_cases": 63550, "_geoloc": {"lat": 35.7047, "lng": -113.7578}}, {"objectID": "Navajo, Arizona, US", "location": "Navajo, Arizona", "country": "US", "confirmed_cases": 44097, "_geoloc": {"lat": 35.3998, "lng": -110.3219}}, {"objectID": "Pima, Arizona, US", "location": "Pima, Arizona", "country": "US", "confirmed_cases": 290693, "_geoloc": {"lat": 32.0971, "lng": -111.789}}, {"objectID": "Pinal, Arizona, US", "location": "Pinal, Arizona", "country": "US", "confirmed_cases": 147217, "_geoloc": {"lat": 32.9053, "lng": -111.3449}}, {"objectID": "Santa Cruz, Arizona, US", "location": "Santa Cruz, Arizona", "country": "US", "confirmed_cases": 18504, "_geoloc": {"lat": 31.5251, "lng": -110.8479}}, {"objectID": "Yavapai, Arizona, US", "location": "Yavapai, Arizona", "country": "US", "confirmed_cases": 54922, "_geoloc": {"lat": 34.5993, "lng": -112.5539}}, {"objectID": "Yuma, Arizona, US", "location": "Yuma, Arizona", "country": "US", "confirmed_cases": 67629, "_geoloc": {"lat": 32.769, "lng": -113.9067}}, {"objectID": "Arkansas, Arkansas, US", "location": "Arkansas, Arkansas", "country": "US", "confirmed_cases": 6611, "_geoloc": {"lat": 34.2915, "lng": -91.3728}}, {"objectID": "Ashley, Arkansas, US", "location": "Ashley, Arkansas", "country": "US", "confirmed_cases": 5859, "_geoloc": {"lat": 33.1915, "lng": -91.7698}}, {"objectID": "Baxter, Arkansas, US", "location": "Baxter, Arkansas", "country": "US", "confirmed_cases": 10156, "_geoloc": {"lat": 36.2878, "lng": -92.3378}}, {"objectID": "Benton, Arkansas, US", "location": "Benton, Arkansas", "country": "US", "confirmed_cases": 73595, "_geoloc": {"lat": 36.3364, "lng": -94.2568}}, {"objectID": "Boone, Arkansas, US", "location": "Boone, Arkansas", "country": "US", "confirmed_cases": 10579, "_geoloc": {"lat": 36.3085, "lng": -93.0937}}, {"objectID": "Bradley, Arkansas, US", "location": "Bradley, Arkansas", "country": "US", "confirmed_cases": 3434, "_geoloc": {"lat": 33.4676, "lng": -92.1598}}, {"objectID": "Calhoun, Arkansas, US", "location": "Calhoun, Arkansas", "country": "US", "confirmed_cases": 1144, "_geoloc": {"lat": 33.556, "lng": -92.4997}}, {"objectID": "Carroll, Arkansas, US", "location": "Carroll, Arkansas", "country": "US", "confirmed_cases": 6913, "_geoloc": {"lat": 36.3404, "lng": -93.5427}}, {"objectID": "Chicot, Arkansas, US", "location": "Chicot, Arkansas", "country": "US", "confirmed_cases": 3020, "_geoloc": {"lat": 33.2646, "lng": -91.2954}}, {"objectID": "Clark, Arkansas, US", "location": "Clark, Arkansas", "country": "US", "confirmed_cases": 6112, "_geoloc": {"lat": 34.0461, "lng": -93.1748}}, {"objectID": "Clay, Arkansas, US", "location": "Clay, Arkansas", "country": "US", "confirmed_cases": 4716, "_geoloc": {"lat": 36.3683, "lng": -90.4148}}, {"objectID": "Cleburne, Arkansas, US", "location": "Cleburne, Arkansas", "country": "US", "confirmed_cases": 7534, "_geoloc": {"lat": 35.5386, "lng": -92.0264}}, {"objectID": "Cleveland, Arkansas, US", "location": "Cleveland, Arkansas", "country": "US", "confirmed_cases": 2546, "_geoloc": {"lat": 33.8972, "lng": -92.1854}}, {"objectID": "Columbia, Arkansas, US", "location": "Columbia, Arkansas", "country": "US", "confirmed_cases": 6281, "_geoloc": {"lat": 33.2123, "lng": -93.2264}}, {"objectID": "Conway, Arkansas, US", "location": "Conway, Arkansas", "country": "US", "confirmed_cases": 6086, "_geoloc": {"lat": 35.2621, "lng": -92.7051}}, {"objectID": "Craighead, Arkansas, US", "location": "Craighead, Arkansas", "country": "US", "confirmed_cases": 43637, "_geoloc": {"lat": 35.8302, "lng": -90.6324}}, {"objectID": "Crawford, Arkansas, US", "location": "Crawford, Arkansas", "country": "US", "confirmed_cases": 17704, "_geoloc": {"lat": 35.5893, "lng": -94.2447}}, {"objectID": "Crittenden, Arkansas, US", "location": "Crittenden, Arkansas", "country": "US", "confirmed_cases": 15857, "_geoloc": {"lat": 35.2125, "lng": -90.3084}}, {"objectID": "Cross, Arkansas, US", "location": "Cross, Arkansas", "country": "US", "confirmed_cases": 5471, "_geoloc": {"lat": 35.2963, "lng": -90.7719}}, {"objectID": "Dallas, Arkansas, US", "location": "Dallas, Arkansas", "country": "US", "confirmed_cases": 1974, "_geoloc": {"lat": 33.9704, "lng": -92.6517}}, {"objectID": "Desha, Arkansas, US", "location": "Desha, Arkansas", "country": "US", "confirmed_cases": 3479, "_geoloc": {"lat": 33.8301, "lng": -91.255}}, {"objectID": "Drew, Arkansas, US", "location": "Drew, Arkansas", "country": "US", "confirmed_cases": 5294, "_geoloc": {"lat": 33.5904, "lng": -91.7178}}, {"objectID": "Faulkner, Arkansas, US", "location": "Faulkner, Arkansas", "country": "US", "confirmed_cases": 40556, "_geoloc": {"lat": 35.1472, "lng": -92.3372}}, {"objectID": "Franklin, Arkansas, US", "location": "Franklin, Arkansas", "country": "US", "confirmed_cases": 4241, "_geoloc": {"lat": 35.512, "lng": -93.893}}, {"objectID": "Fulton, Arkansas, US", "location": "Fulton, Arkansas", "country": "US", "confirmed_cases": 2978, "_geoloc": {"lat": 36.3818, "lng": -91.8173}}, {"objectID": "Garland, Arkansas, US", "location": "Garland, Arkansas", "country": "US", "confirmed_cases": 25861, "_geoloc": {"lat": 34.5769, "lng": -93.1492}}, {"objectID": "Grant, Arkansas, US", "location": "Grant, Arkansas", "country": "US", "confirmed_cases": 4982, "_geoloc": {"lat": 34.2902, "lng": -92.4232}}, {"objectID": "Greene, Arkansas, US", "location": "Greene, Arkansas", "country": "US", "confirmed_cases": 18244, "_geoloc": {"lat": 36.1174, "lng": -90.5583}}, {"objectID": "Hempstead, Arkansas, US", "location": "Hempstead, Arkansas", "country": "US", "confirmed_cases": 5306, "_geoloc": {"lat": 33.7333, "lng": -93.6694}}, {"objectID": "Hot Spring, Arkansas, US", "location": "Hot Spring, Arkansas", "country": "US", "confirmed_cases": 12519, "_geoloc": {"lat": 34.3171, "lng": -92.954}}, {"objectID": "Howard, Arkansas, US", "location": "Howard, Arkansas", "country": "US", "confirmed_cases": 4368, "_geoloc": {"lat": 34.0901, "lng": -93.9935}}, {"objectID": "Independence, Arkansas, US", "location": "Independence, Arkansas", "country": "US", "confirmed_cases": 12084, "_geoloc": {"lat": 35.7424, "lng": -91.57}}, {"objectID": "Izard, Arkansas, US", "location": "Izard, Arkansas", "country": "US", "confirmed_cases": 4424, "_geoloc": {"lat": 36.096, "lng": -91.9085}}, {"objectID": "Jackson, Arkansas, US", "location": "Jackson, Arkansas", "country": "US", "confirmed_cases": 6874, "_geoloc": {"lat": 35.598, "lng": -91.2149}}, {"objectID": "Jefferson, Arkansas, US", "location": "Jefferson, Arkansas", "country": "US", "confirmed_cases": 21339, "_geoloc": {"lat": 34.2677, "lng": -91.9262}}, {"objectID": "Johnson, Arkansas, US", "location": "Johnson, Arkansas", "country": "US", "confirmed_cases": 7732, "_geoloc": {"lat": 35.5676, "lng": -93.4604}}, {"objectID": "Lafayette, Arkansas, US", "location": "Lafayette, Arkansas", "country": "US", "confirmed_cases": 1442, "_geoloc": {"lat": 33.2412, "lng": -93.6068}}, {"objectID": "Lawrence, Arkansas, US", "location": "Lawrence, Arkansas", "country": "US", "confirmed_cases": 6092, "_geoloc": {"lat": 36.0419, "lng": -91.1087}}, {"objectID": "Lee, Arkansas, US", "location": "Lee, Arkansas", "country": "US", "confirmed_cases": 3238, "_geoloc": {"lat": 34.785, "lng": -90.7838}}, {"objectID": "Lincoln, Arkansas, US", "location": "Lincoln, Arkansas", "country": "US", "confirmed_cases": 5249, "_geoloc": {"lat": 33.9532, "lng": -91.74}}, {"objectID": "Little River, Arkansas, US", "location": "Little River, Arkansas", "country": "US", "confirmed_cases": 3667, "_geoloc": {"lat": 33.7038, "lng": -94.2347}}, {"objectID": "Logan, Arkansas, US", "location": "Logan, Arkansas", "country": "US", "confirmed_cases": 5737, "_geoloc": {"lat": 35.2141, "lng": -93.7195}}, {"objectID": "Lonoke, Arkansas, US", "location": "Lonoke, Arkansas", "country": "US", "confirmed_cases": 22743, "_geoloc": {"lat": 34.7539, "lng": -91.8874}}, {"objectID": "Madison, Arkansas, US", "location": "Madison, Arkansas", "country": "US", "confirmed_cases": 4538, "_geoloc": {"lat": 36.0104, "lng": -93.7252}}, {"objectID": "Marion, Arkansas, US", "location": "Marion, Arkansas", "country": "US", "confirmed_cases": 3870, "_geoloc": {"lat": 36.2684, "lng": -92.6845}}, {"objectID": "Miller, Arkansas, US", "location": "Miller, Arkansas", "country": "US", "confirmed_cases": 10976, "_geoloc": {"lat": 33.314, "lng": -93.8929}}, {"objectID": "Mississippi, Arkansas, US", "location": "Mississippi, Arkansas", "country": "US", "confirmed_cases": 15381, "_geoloc": {"lat": 35.7627, "lng": -90.0519}}, {"objectID": "Monroe, Arkansas, US", "location": "Monroe, Arkansas", "country": "US", "confirmed_cases": 2196, "_geoloc": {"lat": 34.6816, "lng": -91.2054}}, {"objectID": "Montgomery, Arkansas, US", "location": "Montgomery, Arkansas", "country": "US", "confirmed_cases": 1702, "_geoloc": {"lat": 34.537, "lng": -93.6582}}, {"objectID": "Nevada, Arkansas, US", "location": "Nevada, Arkansas", "country": "US", "confirmed_cases": 2566, "_geoloc": {"lat": 33.6634, "lng": -93.3063}}, {"objectID": "Newton, Arkansas, US", "location": "Newton, Arkansas", "country": "US", "confirmed_cases": 1917, "_geoloc": {"lat": 35.9195, "lng": -93.2161}}, {"objectID": "Ouachita, Arkansas, US", "location": "Ouachita, Arkansas", "country": "US", "confirmed_cases": 6364, "_geoloc": {"lat": 33.5884, "lng": -92.878}}, {"objectID": "Perry, Arkansas, US", "location": "Perry, Arkansas", "country": "US", "confirmed_cases": 2854, "_geoloc": {"lat": 34.9459, "lng": -92.9437}}, {"objectID": "Phillips, Arkansas, US", "location": "Phillips, Arkansas", "country": "US", "confirmed_cases": 5419, "_geoloc": {"lat": 34.4327, "lng": -90.848}}, {"objectID": "Pike, Arkansas, US", "location": "Pike, Arkansas", "country": "US", "confirmed_cases": 2797, "_geoloc": {"lat": 34.1625, "lng": -93.6579}}, {"objectID": "Poinsett, Arkansas, US", "location": "Poinsett, Arkansas", "country": "US", "confirmed_cases": 9309, "_geoloc": {"lat": 35.5743, "lng": -90.6627}}, {"objectID": "Polk, Arkansas, US", "location": "Polk, Arkansas", "country": "US", "confirmed_cases": 4497, "_geoloc": {"lat": 34.4825, "lng": -94.2273}}, {"objectID": "Pope, Arkansas, US", "location": "Pope, Arkansas", "country": "US", "confirmed_cases": 20245, "_geoloc": {"lat": 35.4487, "lng": -93.0321}}, {"objectID": "Prairie, Arkansas, US", "location": "Prairie, Arkansas", "country": "US", "confirmed_cases": 2260, "_geoloc": {"lat": 34.8362, "lng": -91.5516}}, {"objectID": "Pulaski, Arkansas, US", "location": "Pulaski, Arkansas", "country": "US", "confirmed_cases": 120813, "_geoloc": {"lat": 34.7705, "lng": -92.3136}}, {"objectID": "Randolph, Arkansas, US", "location": "Randolph, Arkansas", "country": "US", "confirmed_cases": 5996, "_geoloc": {"lat": 36.3416, "lng": -91.0246}}, {"objectID": "Saline, Arkansas, US", "location": "Saline, Arkansas", "country": "US", "confirmed_cases": 34950, "_geoloc": {"lat": 34.6492, "lng": -92.6758}}, {"objectID": "Scott, Arkansas, US", "location": "Scott, Arkansas", "country": "US", "confirmed_cases": 2707, "_geoloc": {"lat": 34.8559, "lng": -94.0632}}, {"objectID": "Searcy, Arkansas, US", "location": "Searcy, Arkansas", "country": "US", "confirmed_cases": 2371, "_geoloc": {"lat": 35.9109, "lng": -92.6994}}, {"objectID": "Sebastian, Arkansas, US", "location": "Sebastian, Arkansas", "country": "US", "confirmed_cases": 37255, "_geoloc": {"lat": 35.1961, "lng": -94.2716}}, {"objectID": "Sevier, Arkansas, US", "location": "Sevier, Arkansas", "country": "US", "confirmed_cases": 6799, "_geoloc": {"lat": 33.9978, "lng": -94.2425}}, {"objectID": "Sharp, Arkansas, US", "location": "Sharp, Arkansas", "country": "US", "confirmed_cases": 5416, "_geoloc": {"lat": 36.1626, "lng": -91.4782}}, {"objectID": "St. Francis, Arkansas, US", "location": "St. Francis, Arkansas", "country": "US", "confirmed_cases": 8163, "_geoloc": {"lat": 35.022, "lng": -90.7483}}, {"objectID": "Stone, Arkansas, US", "location": "Stone, Arkansas", "country": "US", "confirmed_cases": 3380, "_geoloc": {"lat": 35.8625, "lng": -92.1568}}, {"objectID": "Union, Arkansas, US", "location": "Union, Arkansas", "country": "US", "confirmed_cases": 10686, "_geoloc": {"lat": 33.1689, "lng": -92.5975}}, {"objectID": "Van Buren, Arkansas, US", "location": "Van Buren, Arkansas", "country": "US", "confirmed_cases": 3989, "_geoloc": {"lat": 35.581, "lng": -92.513}}, {"objectID": "Washington, Arkansas, US", "location": "Washington, Arkansas", "country": "US", "confirmed_cases": 76628, "_geoloc": {"lat": 35.9768, "lng": -94.218}}, {"objectID": "White, Arkansas, US", "location": "White, Arkansas", "country": "US", "confirmed_cases": 25457, "_geoloc": {"lat": 35.2569, "lng": -91.7491}}, {"objectID": "Woodruff, Arkansas, US", "location": "Woodruff, Arkansas", "country": "US", "confirmed_cases": 2137, "_geoloc": {"lat": 35.189, "lng": -91.2439}}, {"objectID": "Yell, Arkansas, US", "location": "Yell, Arkansas", "country": "US", "confirmed_cases": 7360, "_geoloc": {"lat": 35.0029, "lng": -93.4117}}, {"objectID": "Alameda, California, US", "location": "Alameda, California", "country": "US", "confirmed_cases": 364968, "_geoloc": {"lat": 37.6463, "lng": -121.8929}}, {"objectID": "Alpine, California, US", "location": "Alpine, California", "country": "US", "confirmed_cases": 135, "_geoloc": {"lat": 38.5968, "lng": -119.8224}}, {"objectID": "Amador, California, US", "location": "Amador, California", "country": "US", "confirmed_cases": 10875, "_geoloc": {"lat": 38.4458, "lng": -120.657}}, {"objectID": "Butte, California, US", "location": "Butte, California", "country": "US", "confirmed_cases": 48247, "_geoloc": {"lat": 39.6673, "lng": -121.6005}}, {"objectID": "Calaveras, California, US", "location": "Calaveras, California", "country": "US", "confirmed_cases": 9002, "_geoloc": {"lat": 38.2054, "lng": -120.5529}}, {"objectID": "Colusa, California, US", "location": "Colusa, California", "country": "US", "confirmed_cases": 5055, "_geoloc": {"lat": 39.1788, "lng": -122.2332}}, {"objectID": "Contra Costa, California, US", "location": "Contra Costa, California", "country": "US", "confirmed_cases": 268511, "_geoloc": {"lat": 37.9192, "lng": -121.929}}, {"objectID": "Del Norte, California, US", "location": "Del Norte, California", "country": "US", "confirmed_cases": 7808, "_geoloc": {"lat": 41.7423, "lng": -123.8974}}, {"objectID": "El Dorado, California, US", "location": "El Dorado, California", "country": "US", "confirmed_cases": 36399, "_geoloc": {"lat": 38.7797, "lng": -120.5233}}, {"objectID": "Fresno, California, US", "location": "Fresno, California", "country": "US", "confirmed_cases": 303985, "_geoloc": {"lat": 36.7573, "lng": -119.6467}}, {"objectID": "Glenn, California, US", "location": "Glenn, California", "country": "US", "confirmed_cases": 7358, "_geoloc": {"lat": 39.5988, "lng": -122.3938}}, {"objectID": "Humboldt, California, US", "location": "Humboldt, California", "country": "US", "confirmed_cases": 26936, "_geoloc": {"lat": 40.6992, "lng": -123.876}}, {"objectID": "Imperial, California, US", "location": "Imperial, California", "country": "US", "confirmed_cases": 80889, "_geoloc": {"lat": 33.0393, "lng": -115.3669}}, {"objectID": "Inyo, California, US", "location": "Inyo, California", "country": "US", "confirmed_cases": 5440, "_geoloc": {"lat": 36.5111, "lng": -117.4112}}, {"objectID": "Kern, California, US", "location": "Kern, California", "country": "US", "confirmed_cases": 286398, "_geoloc": {"lat": 35.3433, "lng": -118.7278}}, {"objectID": "Kings, California, US", "location": "Kings, California", "country": "US", "confirmed_cases": 63360, "_geoloc": {"lat": 36.0741, "lng": -119.816}}, {"objectID": "Lake, California, US", "location": "Lake, California", "country": "US", "confirmed_cases": 13925, "_geoloc": {"lat": 39.1012, "lng": -122.7536}}, {"objectID": "Lassen, California, US", "location": "Lassen, California", "country": "US", "confirmed_cases": 10934, "_geoloc": {"lat": 40.6731, "lng": -120.5935}}, {"objectID": "Los Angeles, California, US", "location": "Los Angeles, California", "country": "US", "confirmed_cases": 3450411, "_geoloc": {"lat": 34.3083, "lng": -118.2282}}, {"objectID": "Madera, California, US", "location": "Madera, California", "country": "US", "confirmed_cases": 52126, "_geoloc": {"lat": 37.2151, "lng": -119.7666}}, {"objectID": "Marin, California, US", "location": "Marin, California", "country": "US", "confirmed_cases": 50108, "_geoloc": {"lat": 38.0712, "lng": -122.7211}}, {"objectID": "Mariposa, California, US", "location": "Mariposa, California", "country": "US", "confirmed_cases": 4174, "_geoloc": {"lat": 37.5798, "lng": -119.9073}}, {"objectID": "Mendocino, California, US", "location": "Mendocino, California", "country": "US", "confirmed_cases": 20375, "_geoloc": {"lat": 39.4381, "lng": -123.3911}}, {"objectID": "Merced, California, US", "location": "Merced, California", "country": "US", "confirmed_cases": 83533, "_geoloc": {"lat": 37.1892, "lng": -120.7209}}, {"objectID": "Modoc, California, US", "location": "Modoc, California", "country": "US", "confirmed_cases": 1190, "_geoloc": {"lat": 41.5897, "lng": -120.7245}}, {"objectID": "Mono, California, US", "location": "Mono, California", "country": "US", "confirmed_cases": 3451, "_geoloc": {"lat": 37.939, "lng": -118.8872}}, {"objectID": "Monterey, California, US", "location": "Monterey, California", "country": "US", "confirmed_cases": 114742, "_geoloc": {"lat": 36.2186, "lng": -121.2413}}, {"objectID": "Napa, California, US", "location": "Napa, California", "country": "US", "confirmed_cases": 33512, "_geoloc": {"lat": 38.5074, "lng": -122.3328}}, {"objectID": "Nevada, California, US", "location": "Nevada, California", "country": "US", "confirmed_cases": 20680, "_geoloc": {"lat": 39.3039, "lng": -120.7627}}, {"objectID": "Orange, California, US", "location": "Orange, California", "country": "US", "confirmed_cases": 725251, "_geoloc": {"lat": 33.7015, "lng": -117.7646}}, {"objectID": "Placer, California, US", "location": "Placer, California", "country": "US", "confirmed_cases": 84745, "_geoloc": {"lat": 39.0617, "lng": -120.7241}}, {"objectID": "Plumas, California, US", "location": "Plumas, California", "country": "US", "confirmed_cases": 4063, "_geoloc": {"lat": 40.0036, "lng": -120.8395}}, {"objectID": "Riverside, California, US", "location": "Riverside, California", "country": "US", "confirmed_cases": 728108, "_geoloc": {"lat": 33.7431, "lng": -115.9934}}, {"objectID": "Sacramento, California, US", "location": "Sacramento, California", "country": "US", "confirmed_cases": 378249, "_geoloc": {"lat": 38.4511, "lng": -121.3425}}, {"objectID": "San Benito, California, US", "location": "San Benito, California", "country": "US", "confirmed_cases": 17079, "_geoloc": {"lat": 36.6031, "lng": -121.07}}, {"objectID": "San Bernardino, California, US", "location": "San Bernardino, California", "country": "US", "confirmed_cases": 697776, "_geoloc": {"lat": 34.8406, "lng": -116.1775}}, {"objectID": "San Diego, California, US", "location": "San Diego, California", "country": "US", "confirmed_cases": 991029, "_geoloc": {"lat": 33.0348, "lng": -116.7365}}, {"objectID": "San Francisco, California, US", "location": "San Francisco, California", "country": "US", "confirmed_cases": 188897, "_geoloc": {"lat": 37.7522, "lng": -122.4386}}, {"objectID": "San Joaquin, California, US", "location": "San Joaquin, California", "country": "US", "confirmed_cases": 210854, "_geoloc": {"lat": 37.9343, "lng": -121.273}}, {"objectID": "San Luis Obispo, California, US", "location": "San Luis Obispo, California", "country": "US", "confirmed_cases": 70080, "_geoloc": {"lat": 35.3882, "lng": -120.4039}}, {"objectID": "San Mateo, California, US", "location": "San Mateo, California", "country": "US", "confirmed_cases": 177667, "_geoloc": {"lat": 37.4229, "lng": -122.3276}}, {"objectID": "Santa Barbara, California, US", "location": "Santa Barbara, California", "country": "US", "confirmed_cases": 112055, "_geoloc": {"lat": 34.6533, "lng": -120.0188}}, {"objectID": "Santa Clara, California, US", "location": "Santa Clara, California", "country": "US", "confirmed_cases": 448067, "_geoloc": {"lat": 37.231, "lng": -121.697}}, {"objectID": "Santa Cruz, California, US", "location": "Santa Cruz, California", "country": "US", "confirmed_cases": 66115, "_geoloc": {"lat": 37.0558, "lng": -122.0067}}, {"objectID": "Shasta, California, US", "location": "Shasta, California", "country": "US", "confirmed_cases": 42141, "_geoloc": {"lat": 40.7639, "lng": -122.0397}}, {"objectID": "Sierra, California, US", "location": "Sierra, California", "country": "US", "confirmed_cases": 363, "_geoloc": {"lat": 39.5771, "lng": -120.5201}}, {"objectID": "Siskiyou, California, US", "location": "Siskiyou, California", "country": "US", "confirmed_cases": 8541, "_geoloc": {"lat": 41.592, "lng": -122.5407}}, {"objectID": "Solano, California, US", "location": "Solano, California", "country": "US", "confirmed_cases": 112084, "_geoloc": {"lat": 38.2683, "lng": -121.9357}}, {"objectID": "Sonoma, California, US", "location": "Sonoma, California", "country": "US", "confirmed_cases": 111609, "_geoloc": {"lat": 38.5275, "lng": -122.8863}}, {"objectID": "Stanislaus, California, US", "location": "Stanislaus, California", "country": "US", "confirmed_cases": 158598, "_geoloc": {"lat": 37.5586, "lng": -120.9971}}, {"objectID": "Sutter, California, US", "location": "Sutter, California", "country": "US", "confirmed_cases": 26665, "_geoloc": {"lat": 39.0342, "lng": -121.6946}}, {"objectID": "Tehama, California, US", "location": "Tehama, California", "country": "US", "confirmed_cases": 16596, "_geoloc": {"lat": 40.1257, "lng": -122.237}}, {"objectID": "Trinity, California, US", "location": "Trinity, California", "country": "US", "confirmed_cases": 1769, "_geoloc": {"lat": 40.6492, "lng": -123.1147}}, {"objectID": "Tulare, California, US", "location": "Tulare, California", "country": "US", "confirmed_cases": 157584, "_geoloc": {"lat": 36.2203, "lng": -118.802}}, {"objectID": "Tuolumne, California, US", "location": "Tuolumne, California", "country": "US", "confirmed_cases": 16393, "_geoloc": {"lat": 38.0264, "lng": -119.9525}}, {"objectID": "Ventura, California, US", "location": "Ventura, California", "country": "US", "confirmed_cases": 223150, "_geoloc": {"lat": 34.4447, "lng": -119.0911}}, {"objectID": "Yolo, California, US", "location": "Yolo, California", "country": "US", "confirmed_cases": 51513, "_geoloc": {"lat": 38.6828, "lng": -121.9018}}, {"objectID": "Yuba, California, US", "location": "Yuba, California", "country": "US", "confirmed_cases": 20531, "_geoloc": {"lat": 39.2626, "lng": -121.3536}}, {"objectID": "Adams, Colorado, US", "location": "Adams, Colorado", "country": "US", "confirmed_cases": 157082, "_geoloc": {"lat": 39.8743, "lng": -104.3363}}, {"objectID": "Alamosa, Colorado, US", "location": "Alamosa, Colorado", "country": "US", "confirmed_cases": 5360, "_geoloc": {"lat": 37.5725, "lng": -105.7885}}, {"objectID": "Arapahoe, Colorado, US", "location": "Arapahoe, Colorado", "country": "US", "confirmed_cases": 185350, "_geoloc": {"lat": 39.6498, "lng": -104.3354}}, {"objectID": "Archuleta, Colorado, US", "location": "Archuleta, Colorado", "country": "US", "confirmed_cases": 3289, "_geoloc": {"lat": 37.1947, "lng": -107.0477}}, {"objectID": "Baca, Colorado, US", "location": "Baca, Colorado", "country": "US", "confirmed_cases": 978, "_geoloc": {"lat": 37.3194, "lng": -102.5603}}, {"objectID": "Bent, Colorado, US", "location": "Bent, Colorado", "country": "US", "confirmed_cases": 2810, "_geoloc": {"lat": 37.9547, "lng": -103.072}}, {"objectID": "Boulder, Colorado, US", "location": "Boulder, Colorado", "country": "US", "confirmed_cases": 84883, "_geoloc": {"lat": 40.0931, "lng": -105.3547}}, {"objectID": "Broomfield, Colorado, US", "location": "Broomfield, Colorado", "country": "US", "confirmed_cases": 17110, "_geoloc": {"lat": 39.96, "lng": -105.0566}}, {"objectID": "Chaffee, Colorado, US", "location": "Chaffee, Colorado", "country": "US", "confirmed_cases": 5420, "_geoloc": {"lat": 38.7475, "lng": -106.1927}}, {"objectID": "Cheyenne, Colorado, US", "location": "Cheyenne, Colorado", "country": "US", "confirmed_cases": 361, "_geoloc": {"lat": 38.8278, "lng": -102.6033}}, {"objectID": "Clear Creek, Colorado, US", "location": "Clear Creek, Colorado", "country": "US", "confirmed_cases": 1848, "_geoloc": {"lat": 39.6886, "lng": -105.6463}}, {"objectID": "Conejos, Colorado, US", "location": "Conejos, Colorado", "country": "US", "confirmed_cases": 2132, "_geoloc": {"lat": 37.2016, "lng": -106.1917}}, {"objectID": "Costilla, Colorado, US", "location": "Costilla, Colorado", "country": "US", "confirmed_cases": 872, "_geoloc": {"lat": 37.2773, "lng": -105.4277}}, {"objectID": "Crowley, Colorado, US", "location": "Crowley, Colorado", "country": "US", "confirmed_cases": 3470, "_geoloc": {"lat": 38.3261, "lng": -103.7845}}, {"objectID": "Custer, Colorado, US", "location": "Custer, Colorado", "country": "US", "confirmed_cases": 773, "_geoloc": {"lat": 38.1088, "lng": -105.3683}}, {"objectID": "Delta, Colorado, US", "location": "Delta, Colorado", "country": "US", "confirmed_cases": 6786, "_geoloc": {"lat": 38.8625, "lng": -107.8631}}, {"objectID": "Denver, Colorado, US", "location": "Denver, Colorado", "country": "US", "confirmed_cases": 210635, "_geoloc": {"lat": 39.7602, "lng": -104.8726}}, {"objectID": "Dolores, Colorado, US", "location": "Dolores, Colorado", "country": "US", "confirmed_cases": 391, "_geoloc": {"lat": 37.7521, "lng": -108.5212}}, {"objectID": "Douglas, Colorado, US", "location": "Douglas, Colorado", "country": "US", "confirmed_cases": 95426, "_geoloc": {"lat": 39.3313, "lng": -104.93}}, {"objectID": "Eagle, Colorado, US", "location": "Eagle, Colorado", "country": "US", "confirmed_cases": 18053, "_geoloc": {"lat": 39.6275, "lng": -106.6934}}, {"objectID": "El Paso, Colorado, US", "location": "El Paso, Colorado", "country": "US", "confirmed_cases": 221452, "_geoloc": {"lat": 38.8324, "lng": -104.5251}}, {"objectID": "Elbert, Colorado, US", "location": "Elbert, Colorado", "country": "US", "confirmed_cases": 5521, "_geoloc": {"lat": 39.2866, "lng": -104.1359}}, {"objectID": "Fremont, Colorado, US", "location": "Fremont, Colorado", "country": "US", "confirmed_cases": 17366, "_geoloc": {"lat": 38.4736, "lng": -105.44}}, {"objectID": "Garfield, Colorado, US", "location": "Garfield, Colorado", "country": "US", "confirmed_cases": 17112, "_geoloc": {"lat": 39.5992, "lng": -107.9027}}, {"objectID": "Gilpin, Colorado, US", "location": "Gilpin, Colorado", "country": "US", "confirmed_cases": 1128, "_geoloc": {"lat": 39.8565, "lng": -105.5253}}, {"objectID": "Grand, Colorado, US", "location": "Grand, Colorado", "country": "US", "confirmed_cases": 3861, "_geoloc": {"lat": 40.106, "lng": -106.1178}}, {"objectID": "Gunnison, Colorado, US", "location": "Gunnison, Colorado", "country": "US", "confirmed_cases": 3791, "_geoloc": {"lat": 38.6661, "lng": -107.0321}}, {"objectID": "Hinsdale, Colorado, US", "location": "Hinsdale, Colorado", "country": "US", "confirmed_cases": 154, "_geoloc": {"lat": 37.8225, "lng": -107.3004}}, {"objectID": "Huerfano, Colorado, US", "location": "Huerfano, Colorado", "country": "US", "confirmed_cases": 1663, "_geoloc": {"lat": 37.6847, "lng": -104.9613}}, {"objectID": "Jackson, Colorado, US", "location": "Jackson, Colorado", "country": "US", "confirmed_cases": 193, "_geoloc": {"lat": 40.6659, "lng": -106.3409}}, {"objectID": "Jefferson, Colorado, US", "location": "Jefferson, Colorado", "country": "US", "confirmed_cases": 151145, "_geoloc": {"lat": 39.5864, "lng": -105.2518}}, {"objectID": "Kiowa, Colorado, US", "location": "Kiowa, Colorado", "country": "US", "confirmed_cases": 360, "_geoloc": {"lat": 38.4326, "lng": -102.7392}}, {"objectID": "Kit Carson, Colorado, US", "location": "Kit Carson, Colorado", "country": "US", "confirmed_cases": 1796, "_geoloc": {"lat": 39.305, "lng": -102.6022}}, {"objectID": "La Plata, Colorado, US", "location": "La Plata, Colorado", "country": "US", "confirmed_cases": 14798, "_geoloc": {"lat": 37.2863, "lng": -107.8429}}, {"objectID": "Lake, Colorado, US", "location": "Lake, Colorado", "country": "US", "confirmed_cases": 2110, "_geoloc": {"lat": 39.2028, "lng": -106.3556}}, {"objectID": "Larimer, Colorado, US", "location": "Larimer, Colorado", "country": "US", "confirmed_cases": 100031, "_geoloc": {"lat": 40.6667, "lng": -105.4626}}, {"objectID": "Las Animas, Colorado, US", "location": "Las Animas, Colorado", "country": "US", "confirmed_cases": 4015, "_geoloc": {"lat": 37.3153, "lng": -104.0376}}, {"objectID": "Lincoln, Colorado, US", "location": "Lincoln, Colorado", "country": "US", "confirmed_cases": 2344, "_geoloc": {"lat": 38.9875, "lng": -103.5137}}, {"objectID": "Logan, Colorado, US", "location": "Logan, Colorado", "country": "US", "confirmed_cases": 8168, "_geoloc": {"lat": 40.725, "lng": -103.1108}}, {"objectID": "Mesa, Colorado, US", "location": "Mesa, Colorado", "country": "US", "confirmed_cases": 47975, "_geoloc": {"lat": 39.0179, "lng": -108.4698}}, {"objectID": "Mineral, Colorado, US", "location": "Mineral, Colorado", "country": "US", "confirmed_cases": 291, "_geoloc": {"lat": 37.6695, "lng": -106.9282}}, {"objectID": "Moffat, Colorado, US", "location": "Moffat, Colorado", "country": "US", "confirmed_cases": 3423, "_geoloc": {"lat": 40.6181, "lng": -108.2071}}, {"objectID": "Montezuma, Colorado, US", "location": "Montezuma, Colorado", "country": "US", "confirmed_cases": 6995, "_geoloc": {"lat": 37.3386, "lng": -108.5959}}, {"objectID": "Montrose, Colorado, US", "location": "Montrose, Colorado", "country": "US", "confirmed_cases": 10565, "_geoloc": {"lat": 38.4021, "lng": -108.2639}}, {"objectID": "Morgan, Colorado, US", "location": "Morgan, Colorado", "country": "US", "confirmed_cases": 6471, "_geoloc": {"lat": 40.2628, "lng": -103.8093}}, {"objectID": "Otero, Colorado, US", "location": "Otero, Colorado", "country": "US", "confirmed_cases": 4944, "_geoloc": {"lat": 37.9014, "lng": -103.7173}}, {"objectID": "Ouray, Colorado, US", "location": "Ouray, Colorado", "country": "US", "confirmed_cases": 1048, "_geoloc": {"lat": 38.1472, "lng": -107.7675}}, {"objectID": "Park, Colorado, US", "location": "Park, Colorado", "country": "US", "confirmed_cases": 3336, "_geoloc": {"lat": 39.1209, "lng": -105.7182}}, {"objectID": "Phillips, Colorado, US", "location": "Phillips, Colorado", "country": "US", "confirmed_cases": 1008, "_geoloc": {"lat": 40.5941, "lng": -102.3578}}, {"objectID": "Pitkin, Colorado, US", "location": "Pitkin, Colorado", "country": "US", "confirmed_cases": 7793, "_geoloc": {"lat": 39.2172, "lng": -106.931}}, {"objectID": "Prowers, Colorado, US", "location": "Prowers, Colorado", "country": "US", "confirmed_cases": 2934, "_geoloc": {"lat": 37.9554, "lng": -102.3926}}, {"objectID": "Pueblo, Colorado, US", "location": "Pueblo, Colorado", "country": "US", "confirmed_cases": 56539, "_geoloc": {"lat": 38.1736, "lng": -104.5127}}, {"objectID": "Rio Blanco, Colorado, US", "location": "Rio Blanco, Colorado", "country": "US", "confirmed_cases": 2037, "_geoloc": {"lat": 39.9791, "lng": -108.2179}}, {"objectID": "Rio Grande, Colorado, US", "location": "Rio Grande, Colorado", "country": "US", "confirmed_cases": 3355, "_geoloc": {"lat": 37.5837, "lng": -106.3848}}, {"objectID": "Routt, Colorado, US", "location": "Routt, Colorado", "country": "US", "confirmed_cases": 7458, "_geoloc": {"lat": 40.486, "lng": -106.9906}}, {"objectID": "Saguache, Colorado, US", "location": "Saguache, Colorado", "country": "US", "confirmed_cases": 1411, "_geoloc": {"lat": 38.0805, "lng": -106.2825}}, {"objectID": "San Juan, Colorado, US", "location": "San Juan, Colorado", "country": "US", "confirmed_cases": 301, "_geoloc": {"lat": 37.7625, "lng": -107.6763}}, {"objectID": "San Miguel, Colorado, US", "location": "San Miguel, Colorado", "country": "US", "confirmed_cases": 2599, "_geoloc": {"lat": 38.0045, "lng": -108.4021}}, {"objectID": "Sedgwick, Colorado, US", "location": "Sedgwick, Colorado", "country": "US", "confirmed_cases": 534, "_geoloc": {"lat": 40.876, "lng": -102.3519}}, {"objectID": "Summit, Colorado, US", "location": "Summit, Colorado", "country": "US", "confirmed_cases": 11511, "_geoloc": {"lat": 39.638, "lng": -106.1151}}, {"objectID": "Teller, Colorado, US", "location": "Teller, Colorado", "country": "US", "confirmed_cases": 5632, "_geoloc": {"lat": 38.8813, "lng": -105.1615}}, {"objectID": "Washington, Colorado, US", "location": "Washington, Colorado", "country": "US", "confirmed_cases": 1174, "_geoloc": {"lat": 39.9702, "lng": -103.2026}}, {"objectID": "Weld, Colorado, US", "location": "Weld, Colorado", "country": "US", "confirmed_cases": 99334, "_geoloc": {"lat": 40.555, "lng": -104.393}}, {"objectID": "Yuma, Colorado, US", "location": "Yuma, Colorado", "country": "US", "confirmed_cases": 2185, "_geoloc": {"lat": 40.0035, "lng": -102.4259}}, {"objectID": "Fairfield, Connecticut, US", "location": "Fairfield, Connecticut", "country": "US", "confirmed_cases": 243349, "_geoloc": {"lat": 41.2681, "lng": -73.3881}}, {"objectID": "Hartford, Connecticut, US", "location": "Hartford, Connecticut", "country": "US", "confirmed_cases": 216245, "_geoloc": {"lat": 41.8028, "lng": -72.731}}, {"objectID": "Litchfield, Connecticut, US", "location": "Litchfield, Connecticut", "country": "US", "confirmed_cases": 37987, "_geoloc": {"lat": 41.7938, "lng": -73.2451}}, {"objectID": "Middlesex, Connecticut, US", "location": "Middlesex, Connecticut", "country": "US", "confirmed_cases": 35387, "_geoloc": {"lat": 41.4595, "lng": -72.5371}}, {"objectID": "New Haven, Connecticut, US", "location": "New Haven, Connecticut", "country": "US", "confirmed_cases": 235274, "_geoloc": {"lat": 41.408, "lng": -72.9362}}, {"objectID": "New London, Connecticut, US", "location": "New London, Connecticut", "country": "US", "confirmed_cases": 67583, "_geoloc": {"lat": 41.489, "lng": -72.1043}}, {"objectID": "Tolland, Connecticut, US", "location": "Tolland, Connecticut", "country": "US", "confirmed_cases": 25404, "_geoloc": {"lat": 41.8585, "lng": -72.3308}}, {"objectID": "Windham, Connecticut, US", "location": "Windham, Connecticut", "country": "US", "confirmed_cases": 29415, "_geoloc": {"lat": 41.8297, "lng": -71.9818}}, {"objectID": "Kent, Delaware, US", "location": "Kent, Delaware", "country": "US", "confirmed_cases": 59772, "_geoloc": {"lat": 39.0865, "lng": -75.5688}}, {"objectID": "New Castle, Delaware, US", "location": "New Castle, Delaware", "country": "US", "confirmed_cases": 175010, "_geoloc": {"lat": 39.5799, "lng": -75.6405}}, {"objectID": "Sussex, Delaware, US", "location": "Sussex, Delaware", "country": "US", "confirmed_cases": 71962, "_geoloc": {"lat": 38.6614, "lng": -75.3903}}, {"objectID": "District of Columbia, District of Columbia ,US", "location": "District of Columbia, District of Columbia", "country": "US", "confirmed_cases": 168141, "_geoloc": {"lat": 38.9042, "lng": -77.0166}}, {"objectID": "Alachua, Florida, US", "location": "Alachua, Florida", "country": "US", "confirmed_cases": 84122, "_geoloc": {"lat": 29.6787, "lng": -82.3593}}, {"objectID": "Baker, Florida, US", "location": "Baker, Florida", "country": "US", "confirmed_cases": 10049, "_geoloc": {"lat": 30.3306, "lng": -82.2847}}, {"objectID": "Bay, Florida, US", "location": "Bay, Florida", "country": "US", "confirmed_cases": 53466, "_geoloc": {"lat": 30.2655, "lng": -85.6212}}, {"objectID": "Bradford, Florida, US", "location": "Bradford, Florida", "country": "US", "confirmed_cases": 8729, "_geoloc": {"lat": 29.9508, "lng": -82.1661}}, {"objectID": "Brevard, Florida, US", "location": "Brevard, Florida", "country": "US", "confirmed_cases": 165867, "_geoloc": {"lat": 28.2941, "lng": -80.7309}}, {"objectID": "Broward, Florida, US", "location": "Broward, Florida", "country": "US", "confirmed_cases": 732936, "_geoloc": {"lat": 26.1518, "lng": -80.4873}}, {"objectID": "Calhoun, Florida, US", "location": "Calhoun, Florida", "country": "US", "confirmed_cases": 4653, "_geoloc": {"lat": 30.4067, "lng": -85.1939}}, {"objectID": "Charlotte, Florida, US", "location": "Charlotte, Florida", "country": "US", "confirmed_cases": 45089, "_geoloc": {"lat": 26.9013, "lng": -81.9295}}, {"objectID": "Citrus, Florida, US", "location": "Citrus, Florida", "country": "US", "confirmed_cases": 36713, "_geoloc": {"lat": 28.848, "lng": -82.4761}}, {"objectID": "Clay, Florida, US", "location": "Clay, Florida", "country": "US", "confirmed_cases": 63546, "_geoloc": {"lat": 29.9832, "lng": -81.8561}}, {"objectID": "Collier, Florida, US", "location": "Collier, Florida", "country": "US", "confirmed_cases": 100123, "_geoloc": {"lat": 26.1109, "lng": -81.3469}}, {"objectID": "Columbia, Florida, US", "location": "Columbia, Florida", "country": "US", "confirmed_cases": 24444, "_geoloc": {"lat": 30.2251, "lng": -82.6216}}, {"objectID": "DeSoto, Florida, US", "location": "DeSoto, Florida", "country": "US", "confirmed_cases": 10790, "_geoloc": {"lat": 27.1868, "lng": -81.8094}}, {"objectID": "Dixie, Florida, US", "location": "Dixie, Florida", "country": "US", "confirmed_cases": 4708, "_geoloc": {"lat": 29.6063, "lng": -83.1572}}, {"objectID": "Duval, Florida, US", "location": "Duval, Florida", "country": "US", "confirmed_cases": 302311, "_geoloc": {"lat": 30.3323, "lng": -81.6698}}, {"objectID": "Escambia, Florida, US", "location": "Escambia, Florida", "country": "US", "confirmed_cases": 93864, "_geoloc": {"lat": 30.6765, "lng": -87.3728}}, {"objectID": "Flagler, Florida, US", "location": "Flagler, Florida", "country": "US", "confirmed_cases": 27263, "_geoloc": {"lat": 29.4593, "lng": -81.3151}}, {"objectID": "Franklin, Florida, US", "location": "Franklin, Florida", "country": "US", "confirmed_cases": 3438, "_geoloc": {"lat": 29.8379, "lng": -84.8273}}, {"objectID": "Gadsden, Florida, US", "location": "Gadsden, Florida", "country": "US", "confirmed_cases": 16512, "_geoloc": {"lat": 30.578, "lng": -84.6192}}, {"objectID": "Gilchrist, Florida, US", "location": "Gilchrist, Florida", "country": "US", "confirmed_cases": 5355, "_geoloc": {"lat": 29.7286, "lng": -82.7988}}, {"objectID": "Glades, Florida, US", "location": "Glades, Florida", "country": "US", "confirmed_cases": 2224, "_geoloc": {"lat": 26.9564, "lng": -81.19}}, {"objectID": "Gulf, Florida, US", "location": "Gulf, Florida", "country": "US", "confirmed_cases": 4818, "_geoloc": {"lat": 29.9354, "lng": -85.2427}}, {"objectID": "Hamilton, Florida, US", "location": "Hamilton, Florida", "country": "US", "confirmed_cases": 4348, "_geoloc": {"lat": 30.4967, "lng": -82.95}}, {"objectID": "Hardee, Florida, US", "location": "Hardee, Florida", "country": "US", "confirmed_cases": 9921, "_geoloc": {"lat": 27.4929, "lng": -81.8096}}, {"objectID": "Hendry, Florida, US", "location": "Hendry, Florida", "country": "US", "confirmed_cases": 13278, "_geoloc": {"lat": 26.5539, "lng": -81.1647}}, {"objectID": "Hernando, Florida, US", "location": "Hernando, Florida", "country": "US", "confirmed_cases": 51135, "_geoloc": {"lat": 28.5536, "lng": -82.427}}, {"objectID": "Highlands, Florida, US", "location": "Highlands, Florida", "country": "US", "confirmed_cases": 29120, "_geoloc": {"lat": 27.3425, "lng": -81.3407}},